{"community":[{"name":"港汇公寓","position":{"O":31.211032,"M":121.43515400000001,"lng":121.435154,"lat":31.211032},"address":"华山路1118号(近虹桥路)","type":"商务住宅;住宅区;住宅区","bu":0},{"name":"上浦路小区","position":{"O":31.146299,"M":121.49815000000001,"lng":121.49815,"lat":31.146299},"address":"上浦路与灵岩南路交叉口南50米","type":"商务住宅;住宅区;住宅小区","bu":0},{"name":"城市一品苑","position":{"O":31.222778,"M":121.45754699999998,"lng":121.457547,"lat":31.222778},"address":"陕西南路3号","type":"商务住宅;楼宇;商住两用楼宇","bu":0},{"name":"俞家弄","position":{"O":31.21663,"M":121.49604,"lng":121.49604,"lat":31.21663},"address":"黄家路99弄33号","type":"商务住宅;住宅区;住宅区","bu":0},{"name":"张江国际酒店公寓","position":{"O":31.23282,"M":121.48003,"lng":121.48003,"lat":31.23282},"address":"福州路555号24k","type":"商务住宅;住宅区;住宅区","bu":0},{"name":"久泰公寓(湖南路)","position":{"O":31.207808,"M":121.43390699999998,"lng":121.433907,"lat":31.207808},"address":"湖南路湖南路581号","type":"商务住宅;住宅区;住宅小区|住宿服务;宾馆酒店;宾馆酒店","bu":0},{"name":"印象生活广场","position":{"O":31.114941,"M":121.59332999999998,"lng":121.59333,"lat":31.114941},"address":"周浦镇年家浜东路159号","type":"商务住宅;楼宇;商住两用楼宇","bu":0},{"name":"上海滨江名人苑(豪华江景公寓)","position":{"O":31.223381,"M":121.49859200000003,"lng":121.498592,"lat":31.223381},"address":"中华路88弄1号楼1101室","type":"商务住宅;商务住宅相关;商务住宅相关","bu":0},{"name":"上海HavingFunparty别墅","position":{"O":31.117258,"M":121.45897100000002,"lng":121.458971,"lat":31.117258},"address":"望月路882弄印象欧洲别墅(莘庄工业区)","type":"商务住宅;住宅区;别墅","bu":0},{"name":"上海奥林匹克花园(一至三期)","position":{"O":31.149026,"M":121.326616,"lng":121.326616,"lat":31.149026},"address":"九亭镇涞亭北路99弄涞寅路106弄","type":"商务住宅;住宅区;住宅小区","bu":0},{"name":"上海好如家公寓","position":{"O":31.303495,"M":121.42805499999997,"lng":121.428055,"lat":31.303495},"address":"场中路3333号","type":"商务住宅;住宅区;住宅小区","bu":0},{"name":"保利蔚蓝林语","position":{"O":30.902732,"M":121.90399200000002,"lng":121.903992,"lat":30.902732},"address":"浦东南汇新城茉莉路565号","type":"商务住宅;住宅区;住宅小区","bu":0},{"name":"黄浦滩名苑","position":{"O":31.201037,"M":121.49318199999999,"lng":121.493182,"lat":31.201037},"address":"保屯路288弄之1-9号","type":"商务住宅;住宅区;住宅小区","bu":0},{"name":"南山·雨果","position":{"O":31.16012,"M":121.26961499999999,"lng":121.269615,"lat":31.16012},"address":"叶联路699弄","type":"商务住宅;住宅区;住宅小区","bu":0},{"name":"保集·澜湾","position":{"O":31.238923,"M":121.67438500000003,"lng":121.674385,"lat":31.238923},"address":"宏雅路150弄","type":"商务住宅;住宅区;住宅小区","bu":0},{"name":"奥林匹克花园2期","position":{"O":31.150471,"M":121.32487600000002,"lng":121.324876,"lat":31.150471},"address":"涞寅路106号","type":"商务住宅;住宅区;住宅小区","bu":0},{"name":"鑫塔·水尚","position":{"O":31.140389,"M":121.13930900000003,"lng":121.139309,"lat":31.140389},"address":"南淀浦河路5000弄","type":"商务住宅;住宅区;住宅小区","bu":0},{"name":"白领公寓","position":{"O":31.206131,"M":121.613633,"lng":121.613633,"lat":31.206131},"address":"张江镇广兰路778号","type":"商务住宅;商务住宅相关;商务住宅相关","bu":0},{"name":"嘉领国际","position":{"O":31.367823,"M":121.25977699999999,"lng":121.259777,"lat":31.367823},"address":"沪宜公路与叶城路路口","type":"商务住宅;楼宇;商务写字楼","bu":2},{"name":"万源新城4期","position":{"O":31.173969,"M":121.38414,"lng":121.38414,"lat":31.173969},"address":"环镇南路11号","type":"商务住宅;住宅区;住宅小区","bu":2},{"name":"淞南四村","position":{"O":31.348495,"M":121.49080500000002,"lng":121.490805,"lat":31.348495},"address":"长江路440弄","type":"商务住宅;住宅区;住宅小区","bu":0},{"name":"南杨小区南区","position":{"O":31.156136,"M":121.49217299999998,"lng":121.492173,"lat":31.156136},"address":"长清路773弄之1-47号","type":"商务住宅;住宅区;住宅小区","bu":0},{"name":"人民大厦","position":{"O":31.230449,"M":121.47360900000001,"lng":121.473609,"lat":31.230449},"address":"人民大道200号","type":"商务住宅;商务住宅相关;商务住宅相关","bu":0},{"name":"文华苑(车站北路)","position":{"O":31.296401,"M":121.464878,"lng":121.464878,"lat":31.296401},"address":"车站北路727弄1-31号","type":"商务住宅;住宅区;住宅小区","bu":0},{"name":"机电大厦","position":{"O":31.228317,"M":121.45081600000003,"lng":121.450816,"lat":31.228317},"address":"南京西路街道北京西路1287号","type":"商务住宅;楼宇;商务写字楼","bu":1},{"name":"同济大学科技园(分部)","position":{"O":31.274562,"M":121.51897500000001,"lng":121.518975,"lat":31.274562},"address":"控江路1553-1555号上海信息技术大厦","type":"商务住宅;产业园区;产业园区","bu":0},{"name":"信息大楼(临虹路)","position":{"O":31.230674,"M":121.34892400000001,"lng":121.348924,"lat":31.230674},"address":"新泾镇临虹路280弄1号","type":"商务住宅;楼宇;商务写字楼","bu":1},{"name":"绿地新里崴廉公馆","position":{"O":31.296879,"M":121.316574,"lng":121.316574,"lat":31.296879},"address":"嘉定佳通路211号(真南路德华路交汇处)","type":"商务住宅;住宅区;住宅小区","bu":1},{"name":"伊顿公馆(观海路)","position":{"O":31.058335,"M":121.78451999999999,"lng":121.78452,"lat":31.058335},"address":"观海路1118弄","type":"商务住宅;住宅区;住宅小区","bu":0},{"name":"太阳谷","position":{"O":31.053669,"M":121.794692,"lng":121.794692,"lat":31.053669},"address":"惠南镇拱极东路3136弄","type":"商务住宅;住宅区;别墅","bu":0},{"name":"绿地南桥新苑(西区二期)","position":{"O":30.926657,"M":121.46880799999997,"lng":121.468808,"lat":30.926657},"address":"南桥镇环城东路885弄","type":"商务住宅;住宅区;住宅小区","bu":0},{"name":"绿中海","position":{"O":31.153174,"M":121.20101999999997,"lng":121.20102,"lat":31.153174},"address":"赵巷路与赵华路交叉口东北角","type":"商务住宅;住宅区;别墅","bu":0},{"name":"宏立瑞园","position":{"O":31.309503,"M":121.32244200000002,"lng":121.322442,"lat":31.309503},"address":"宝翔路560弄","type":"商务住宅;住宅区;住宅小区","bu":0},{"name":"广润苑","position":{"O":31.085617,"M":121.41771,"lng":121.41771,"lat":31.085617},"address":"颛桥镇沪光路88弄","type":"商务住宅;住宅区;住宅小区","bu":0},{"name":"金山工业区(金山工业区大道)","position":{"O":30.841644,"M":121.348255,"lng":121.348255,"lat":30.841644},"address":"金山工业区大道100号","type":"商务住宅;产业园区;产业园区","bu":1},{"name":"金硕河畔景园西区","position":{"O":31.054672,"M":121.53429699999998,"lng":121.534297,"lat":31.054672},"address":"江协路51弄58号1101","type":"商务住宅;住宅区;住宅小区","bu":0},{"name":"世纪花苑(叶校路)","position":{"O":30.939742,"M":121.31365,"lng":121.31365,"lat":30.939742},"address":"政府路738弄47号","type":"商务住宅;住宅区;住宅小区","bu":0},{"name":"合景领峰","position":{"O":31.336927,"M":121.25714600000003,"lng":121.257146,"lat":31.336927},"address":"合作路719弄","type":"商务住宅;住宅区;住宅小区","bu":0},{"name":"海上御景苑","position":{"O":31.477279,"M":121.32781599999998,"lng":121.327816,"lat":31.477279},"address":"长虹路779弄1-95号","type":"商务住宅;住宅区;住宅小区","bu":0},{"name":"南翔渔邨","position":{"O":31.299238,"M":121.30601300000001,"lng":121.306013,"lat":31.299238},"address":"德园路707号","type":"餐饮服务;中餐厅;海鲜酒楼|商务住宅;住宅区;住宅小区","bu":2},{"name":"富友嘉园南区","position":{"O":31.257871,"M":121.32235700000001,"lng":121.322357,"lat":31.257871},"address":"临夏路999弄81号602室","type":"商务住宅;住宅区;住宅小区","bu":0},{"name":"西苑小区(平原街)","position":{"O":31.031634,"M":121.13291300000003,"lng":121.132913,"lat":31.031634},"address":"平原街小区(小昆山镇)附近","type":"商务住宅;住宅区;住宅小区","bu":0},{"name":"田园小区(新浜共青路)","position":{"O":30.929358,"M":121.06674399999997,"lng":121.066744,"lat":30.929358},"address":"新浜镇共青路1145号","type":"商务住宅;住宅区;住宅小区","bu":1},{"name":"明城海湾新苑","position":{"O":30.863007,"M":121.559642,"lng":121.559642,"lat":30.863007},"address":"明城路1088弄,明城路1198弄","type":"商务住宅;住宅区;住宅小区","bu":0},{"name":"航华二村三街坊","position":{"O":31.170246,"M":121.34697399999999,"lng":121.346974,"lat":31.170246},"address":"航新路115号-178号","type":"商务住宅;住宅区;住宅小区","bu":0},{"name":"怀盛怡庭","position":{"O":31.140139,"M":121.09544699999998,"lng":121.095447,"lat":31.140139},"address":"青浦漕程路199弄(近盈清路)","type":"商务住宅;住宅区;住宅小区","bu":0},{"name":"华宏商务中心","position":{"O":31.224259,"M":121.39340099999998,"lng":121.393401,"lat":31.224259},"address":"大渡河路388弄5号","type":"商务住宅;楼宇;商务写字楼","bu":0},{"name":"吴兴公寓","position":{"O":31.20112,"M":121.44527600000004,"lng":121.445276,"lat":31.20112},"address":"吴兴路219号","type":"商务住宅;住宅区;住宅小区","bu":0},{"name":"绿地科技岛广场A座","position":{"O":31.116303,"M":121.38716799999997,"lng":121.387168,"lat":31.116303},"address":"莘建东路58弄2号","type":"商务住宅;楼宇;商务写字楼","bu":1},{"name":"鸿祥大厦","position":{"O":31.233616,"M":121.471003,"lng":121.471003,"lat":31.233616},"address":"黄河路21-43号(近凤阳路)","type":"商务住宅;楼宇;商务写字楼","bu":0},{"name":"宁兴上尚湾","position":{"O":31.266664,"M":121.33491200000003,"lng":121.334912,"lat":31.266664},"address":"江桥镇临洮路1000弄","type":"商务住宅;住宅区;住宅小区","bu":0},{"name":"中星海上名豪苑","position":{"O":31.265713,"M":121.32991099999998,"lng":121.329911,"lat":31.265713},"address":"嘉涛路60弄","type":"商务住宅;住宅区;住宅小区","bu":0},{"name":"曹杨汽车公寓","position":{"O":31.237309,"M":121.417394,"lng":121.417394,"lat":31.237309},"address":"曹杨路609弄之2-10号","type":"商务住宅;住宅区;住宅小区","bu":0},{"name":"福康里(浙江北路)","position":{"O":31.246367,"M":121.474851,"lng":121.474851,"lat":31.246367},"address":"浙江北路295号","type":"商务住宅;住宅区;住宅小区","bu":0},{"name":"国泰公寓(淮海中路)","position":{"O":31.218376,"M":121.46189600000002,"lng":121.461896,"lat":31.218376},"address":"淮海中路814弄1-7号、816弄1-58号","type":"商务住宅;住宅区;住宅小区","bu":0},{"name":"兰乔圣菲(金辉路)","position":{"O":31.204078,"M":121.27679899999998,"lng":121.276799,"lat":31.204078},"address":"华漕镇金辉路333弄","type":"商务住宅;住宅区;住宅小区","bu":0},{"name":"浦江东旭公寓(东靖路)","position":{"O":31.290656,"M":121.58529499999997,"lng":121.585295,"lat":31.290656},"address":"东靖路626弄1-25号","type":"商务住宅;住宅区;住宅小区","bu":0},{"name":"康博佳苑","position":{"O":31.203575,"M":121.186372,"lng":121.186372,"lat":31.203575},"address":"福定路385","type":"商务住宅;住宅区;住宅小区","bu":0},{"name":"上川路1468弄","position":{"O":31.276867,"M":121.66346699999997,"lng":121.663467,"lat":31.276867},"address":"上川路1468弄1-6","type":"商务住宅;住宅区;住宅小区","bu":0},{"name":"金鹤新城中虹华苑","position":{"O":31.248173,"M":121.31838399999998,"lng":121.318384,"lat":31.248173},"address":"金园一路1115弄1-135号","type":"商务住宅;住宅区;住宅小区","bu":2},{"name":"总统公寓(华山路)","position":{"O":31.213661,"M":121.43887899999999,"lng":121.438879,"lat":31.213661},"address":"华山路868弄之1-6号","type":"商务住宅;住宅区;住宅小区","bu":0},{"name":"海德花园","position":{"O":31.391184,"M":121.42291399999999,"lng":121.422914,"lat":31.391184},"address":"杨行镇蕴川路2488弄","type":"商务住宅;住宅区;住宅小区","bu":0},{"name":"高东新村(光明路)","position":{"O":31.333725,"M":121.61497600000001,"lng":121.614976,"lat":31.333725},"address":"光明路41-222弄","type":"商务住宅;住宅区;住宅小区","bu":1},{"name":"嘉宝商厦","position":{"O":31.384013,"M":121.24779000000001,"lng":121.24779,"lat":31.384013},"address":"清河路55号","type":"商务住宅;楼宇;商务写字楼","bu":2},{"name":"东苑古龙城古龙尚居","position":{"O":31.151461,"M":121.399878,"lng":121.399878,"lat":31.151461},"address":"闵行古龙路66弄、古龙路300弄","type":"商务住宅;住宅区;住宅小区","bu":0},{"name":"上海市工业综合开发区(南桥·环城北路)","position":{"O":30.953666,"M":121.43360200000001,"lng":121.433602,"lat":30.953666},"address":"环城西路3111号110室","type":"商务住宅;产业园区;产业园区","bu":0},{"name":"东八公寓西区","position":{"O":31.114912,"M":121.58070399999997,"lng":121.580704,"lat":31.114912},"address":"年家浜路213弄1-10号","type":"商务住宅;住宅区;住宅小区","bu":2},{"name":"莲浦府邸东区","position":{"O":31.140195,"M":121.366285,"lng":121.366285,"lat":31.140195},"address":"宝铭路88弄","type":"商务住宅;住宅区;住宅小区","bu":1},{"name":"博泰景苑","position":{"O":31.300143,"M":121.1522,"lng":121.1522,"lat":31.300143},"address":"和静路1585弄1-37号","type":"商务住宅;住宅区;住宅小区","bu":0},{"name":"红明二村","position":{"O":31.162812,"M":121.374056,"lng":121.374056,"lat":31.162812},"address":"漕宝路1565弄之1号-24号","type":"商务住宅;住宅区;住宅小区","bu":0},{"name":"蒙西小区","position":{"O":31.207074,"M":121.47560900000002,"lng":121.475609,"lat":31.207074},"address":"丽园路887号","type":"商务住宅;住宅区;住宅小区","bu":1},{"name":"徐汇临江豪园","position":{"O":31.18336,"M":121.45303100000001,"lng":121.453031,"lat":31.18336},"address":"宛平南路921弄(龙华路口)","type":"商务住宅;住宅区;住宅小区","bu":0},{"name":"花园坊","position":{"O":31.213712,"M":121.46629200000001,"lng":121.466292,"lat":31.213712},"address":"瑞金二路129弄1-118号","type":"商务住宅;住宅区;住宅小区","bu":0},{"name":"汇泰大楼","position":{"O":31.208906,"M":121.47234000000003,"lng":121.47234,"lat":31.208906},"address":"徐家汇路430号","type":"商务住宅;楼宇;商务写字楼","bu":0},{"name":"嘉旺苑","position":{"O":31.256241,"M":121.32475899999997,"lng":121.324759,"lat":31.256241},"address":"靖远路1288弄","type":"商务住宅;住宅区;住宅小区","bu":1},{"name":"外冈新苑(恒飞路)","position":{"O":31.364776,"M":121.16247299999998,"lng":121.162473,"lat":31.364776},"address":"恒飞路489弄","type":"商务住宅;住宅区;住宅小区","bu":1},{"name":"中心路小区","position":{"O":31.118114,"M":121.326144,"lng":121.326144,"lat":31.118114},"address":"九亭中心路275弄","type":"商务住宅;住宅区;住宅小区","bu":0},{"name":"毕加索小镇2期","position":{"O":31.211512,"M":121.64736800000003,"lng":121.647368,"lat":31.211512},"address":"唐安路50弄","type":"商务住宅;住宅区;住宅小区","bu":0},{"name":"杜巷小区","position":{"O":31.155894,"M":121.31647800000002,"lng":121.316478,"lat":31.155894},"address":"涞坊路288弄","type":"商务住宅;住宅区;住宅小区","bu":0},{"name":"金地格林世界白金生活别墅","position":{"O":31.301221,"M":121.319727,"lng":121.319727,"lat":31.301221},"address":"芳林路333弄101-109号","type":"商务住宅;住宅区;别墅","bu":0},{"name":"九龙仓·玺园","position":{"O":31.327214,"M":121.508197,"lng":121.508197,"lat":31.327214},"address":"国晓路500弄1-30号","type":"商务住宅;住宅区;住宅小区","bu":0},{"name":"创星园","position":{"O":31.19346,"M":121.584949,"lng":121.584949,"lat":31.19346},"address":"张江高科技园区达尔文路88号3号楼","type":"商务住宅;产业园区;产业园区","bu":0},{"name":"汇贤阁","position":{"O":31.148759,"M":121.30887000000001,"lng":121.30887,"lat":31.148759},"address":"涞坊路699弄5、6、9、10号","type":"商务住宅;住宅区;住宅小区","bu":0},{"name":"象屿名城","position":{"O":31.131377,"M":121.31654800000001,"lng":121.316548,"lat":31.131377},"address":"伴亭路888弄","type":"商务住宅;住宅区;住宅小区","bu":0},{"name":"万豪公寓(塘沽路)","position":{"O":31.245949,"M":121.47965899999997,"lng":121.479659,"lat":31.245949},"address":"塘沽路835号1103","type":"商务住宅;住宅区;住宅小区","bu":0},{"name":"祥腾菁英公馆","position":{"O":31.342729,"M":121.48724500000003,"lng":121.487245,"lat":31.342729},"address":"淞南镇淞发路901弄","type":"商务住宅;住宅区;住宅小区","bu":0},{"name":"棕榈滩别墅","position":{"O":30.817075,"M":121.52445799999998,"lng":121.524458,"lat":30.817075},"address":"莘奉公路4999号、金汇塘路369弄","type":"商务住宅;住宅区;别墅","bu":0},{"name":"红旗四街坊","position":{"O":31.014366,"M":121.39738999999997,"lng":121.39739,"lat":31.014366},"address":"碧江路502弄1-80号","type":"商务住宅;住宅区;住宅小区","bu":2},{"name":"怡华家园","position":{"O":31.404996,"M":121.24345,"lng":121.24345,"lat":31.404996},"address":"柳湖路777弄","type":"商务住宅;住宅区;住宅小区","bu":0},{"name":"虹梅新苑","position":{"O":31.040445,"M":121.45865600000002,"lng":121.458656,"lat":31.040445},"address":"永德路369弄","type":"商务住宅;住宅区;住宅小区","bu":0},{"name":"高行绿洲2期","position":{"O":31.32851,"M":121.59353499999997,"lng":121.593535,"lat":31.32851},"address":"秋岚路251弄1-43号","type":"商务住宅;住宅区;住宅小区","bu":2},{"name":"世纪花苑四村","position":{"O":30.940428,"M":121.313153,"lng":121.313153,"lat":30.940428},"address":"政府路138号附近","type":"商务住宅;住宅区;住宅小区","bu":0},{"name":"银丰苑","position":{"O":31.267027,"M":121.68785500000001,"lng":121.687855,"lat":31.267027},"address":"银峰路549弄1-171号","type":"商务住宅;住宅区;住宅小区","bu":0},{"name":"嘉定工业区马陆园区","position":{"O":31.329795,"M":121.26806699999997,"lng":121.268067,"lat":31.329795},"address":"封周路655号","type":"商务住宅;产业园区;产业园区","bu":0},{"name":"慧创国际","position":{"O":31.239894,"M":121.32921099999999,"lng":121.329211,"lat":31.239894},"address":"沙河路337号","type":"商务住宅;楼宇;商务写字楼","bu":0},{"name":"东方帕堤欧","position":{"O":31.351973,"M":121.38637900000003,"lng":121.386379,"lat":31.351973},"address":"顾北路689弄之1-159号","type":"商务住宅;住宅区;住宅小区","bu":0},{"name":"思南公寓","position":{"O":31.20895,"M":121.46911599999999,"lng":121.469116,"lat":31.20895},"address":"建国中路115弄之3-4号","type":"商务住宅;住宅区;住宅小区","bu":0},{"name":"东门新村(玉环路)","position":{"O":31.630301,"M":121.40629899999999,"lng":121.406299,"lat":31.630301},"address":"城桥镇东门路近湄洲路","type":"商务住宅;住宅区;住宅小区","bu":0},{"name":"南翔高科技产业园区","position":{"O":31.307985,"M":121.29188399999998,"lng":121.291884,"lat":31.307985},"address":"嘉美路258号(近胜辛南路)","type":"商务住宅;产业园区;产业园区","bu":0},{"name":"景都公寓","position":{"O":31.168073,"M":121.271973,"lng":121.271973,"lat":31.168073},"address":"徐泾镇育才路451号","type":"商务住宅;住宅区;住宅小区","bu":0},{"name":"绿园四村","position":{"O":31.204413,"M":121.36318299999999,"lng":121.363183,"lat":31.204413},"address":"淞虹路905弄1-65号","type":"商务住宅;住宅区;住宅小区","bu":0},{"name":"沪华公寓","position":{"O":31.163939,"M":121.43307299999998,"lng":121.433073,"lat":31.163939},"address":"冠生园路20号","type":"商务住宅;住宅区;住宅小区","bu":2},{"name":"徐汇一品苑","position":{"O":31.213929,"M":121.44018499999999,"lng":121.440185,"lat":31.213929},"address":"安福路298弄之1-2号","type":"商务住宅;住宅区;住宅小区","bu":0},{"name":"威隆大厦","position":{"O":31.254038,"M":121.36471499999999,"lng":121.364715,"lat":31.254038},"address":"江桥镇曹安公路1718号","type":"商务住宅;楼宇;商住两用楼宇","bu":0},{"name":"云都公寓","position":{"O":31.218598,"M":121.40991400000001,"lng":121.409914,"lat":31.218598},"address":"长宁路1488弄18号","type":"商务住宅;住宅区;住宅小区","bu":0},{"name":"林与堂","position":{"O":31.203702,"M":121.419221,"lng":121.419221,"lat":31.203702},"address":"长宁凯旋路1228号","type":"商务住宅;住宅区;住宅区","bu":0},{"name":"沙田公寓","position":{"O":31.194998,"M":121.67202299999997,"lng":121.672023,"lat":31.194998},"address":"华夏东路1152弄4-49号","type":"商务住宅;住宅区;住宅小区","bu":0},{"name":"优豪创展中心","position":{"O":31.28202,"M":121.487572,"lng":121.487572,"lat":31.28202},"address":"东体育会路赤峰路433号","type":"商务住宅;楼宇;商务写字楼","bu":0},{"name":"鹏宏苑","position":{"O":31.171369,"M":121.55779999999999,"lng":121.5578,"lat":31.171369},"address":"鹏飞路333弄1-37号","type":"商务住宅;住宅区;住宅小区","bu":2},{"name":"掘金大厦","position":{"O":31.1249,"M":121.42359699999997,"lng":121.423597,"lat":31.1249},"address":"虹梅南路984-986","type":"商务住宅;楼宇;商务写字楼","bu":0},{"name":"长发里","position":{"O":31.260671,"M":121.54275899999999,"lng":121.542759,"lat":31.260671},"address":"杨树浦路1877弄1-14号","type":"商务住宅;住宅区;住宅小区","bu":1},{"name":"宝华城市花园","position":{"O":31.278616,"M":121.466384,"lng":121.466384,"lat":31.278616},"address":"株洲路307弄1号","type":"商务住宅;住宅区;住宅小区","bu":0},{"name":"耕山里","position":{"O":31.247805,"M":121.478051,"lng":121.478051,"lat":31.247805},"address":"安庆路381弄之4-14号","type":"商务住宅;住宅区;住宅小区","bu":0},{"name":"时运大楼","position":{"O":31.200433,"M":121.46411499999999,"lng":121.464115,"lat":31.200433},"address":"斜土路1219弄30号(正阳路25号)","type":"商务住宅;住宅区;住宅小区","bu":0},{"name":"公安大楼(吴兴路)","position":{"O":31.199551,"M":121.444794,"lng":121.444794,"lat":31.199551},"address":"吴兴路270弄1-8号","type":"商务住宅;住宅区;住宅小区","bu":0},{"name":"海波花苑南区","position":{"O":31.169128,"M":121.450513,"lng":121.450513,"lat":31.169128},"address":"龙华西路31弄52-58号、70-73号","type":"商务住宅;住宅区;住宅小区","bu":0},{"name":"天骄大厦","position":{"O":31.252567,"M":121.60015599999997,"lng":121.600156,"lat":31.252567},"address":"金桥经济技术开发区金新路99号","type":"商务住宅;楼宇;商务写字楼","bu":0},{"name":"华阳小区(安化路)","position":{"O":31.214469,"M":121.424444,"lng":121.424444,"lat":31.214469},"address":"安化路331弄26支弄1-44号","type":"商务住宅;住宅区;住宅小区","bu":0},{"name":"虹旭小区","position":{"O":31.202932,"M":121.38675999999998,"lng":121.38676,"lat":31.202932},"address":"虹古路417弄之1-49号","type":"商务住宅;住宅区;住宅小区","bu":0},{"name":"福兴村","position":{"O":31.229947,"M":121.41790000000003,"lng":121.4179,"lat":31.229947},"address":"光复西路61-64号","type":"商务住宅;住宅区;住宅小区","bu":0},{"name":"三角大楼","position":{"O":31.211122,"M":121.50102900000002,"lng":121.501029,"lat":31.211122},"address":"陆家浜路285号","type":"商务住宅;楼宇;商务写字楼","bu":2},{"name":"东华大学国家大学科技园(新华路)","position":{"O":31.202624,"M":121.424981,"lng":121.424981,"lat":31.202624},"address":"新华路365弄1","type":"商务住宅;产业园区;产业园区","bu":0},{"name":"永康里(北京东路)","position":{"O":31.238611,"M":121.47488699999997,"lng":121.474887,"lat":31.238611},"address":"北京东路796弄1-25号","type":"商务住宅;住宅区;住宅小区","bu":0},{"name":"三星里","position":{"O":31.236833,"M":121.470959,"lng":121.470959,"lat":31.236833},"address":"北京西路134弄3-11号","type":"商务住宅;住宅区;住宅小区","bu":0},{"name":"侨苑(北京西路)","position":{"O":31.236953,"M":121.47132399999998,"lng":121.471324,"lat":31.236953},"address":"北京西路120弄3-6号","type":"商务住宅;住宅区;住宅小区","bu":0},{"name":"达安锦园北区","position":{"O":31.238234,"M":121.44160499999998,"lng":121.441605,"lat":31.238234},"address":"新丰路518弄之1-8号","type":"商务住宅;住宅区;住宅小区","bu":0},{"name":"双柏小区","position":{"O":31.045012,"M":121.47220099999998,"lng":121.472201,"lat":31.045012},"address":"剑川路100弄2-139号","type":"商务住宅;住宅区;住宅小区","bu":0},{"name":"阳光迪金阁","position":{"O":31.348474,"M":121.398575,"lng":121.398575,"lat":31.348474},"address":"顾新东路387弄之1-10号","type":"商务住宅;住宅区;住宅小区","bu":1},{"name":"证大家园12期","position":{"O":31.282429,"M":121.60001799999998,"lng":121.600018,"lat":31.282429},"address":"巨峰路667弄","type":"商务住宅;住宅区;住宅小区","bu":2},{"name":"和憬家园","position":{"O":31.200681,"M":121.68604700000003,"lng":121.686047,"lat":31.200681},"address":"川沙镇硕川路125弄","type":"商务住宅;住宅区;住宅小区","bu":0},{"name":"紫勋雅苑","position":{"O":31.198765,"M":121.41839700000003,"lng":121.418397,"lat":31.198765},"address":"长顺路36弄之1-11号","type":"商务住宅;住宅区;住宅小区","bu":0},{"name":"沪太家具大厦","position":{"O":31.257907,"M":121.45043299999998,"lng":121.450433,"lat":31.257907},"address":"中山北路1080号","type":"商务住宅;楼宇;商住两用楼宇","bu":0},{"name":"阳光摩天城","position":{"O":31.200482,"M":121.51293599999997,"lng":121.512936,"lat":31.200482},"address":"浦东南路2321号(近东三里桥路)","type":"商务住宅;住宅区;住宅小区","bu":0},{"name":"明泉璞院","position":{"O":31.166466,"M":121.36798299999998,"lng":121.367983,"lat":31.166466},"address":"虹秀路78弄(近虹泉路)","type":"商务住宅;住宅区;住宅小区","bu":0},{"name":"东方名筑-馥园","position":{"O":31.199959,"M":121.51957900000002,"lng":121.519579,"lat":31.199959},"address":"东方路1968弄1-24号","type":"商务住宅;住宅区;住宅区","bu":0},{"name":"静安鼎鑫佳园","position":{"O":31.235626,"M":121.44437800000003,"lng":121.444378,"lat":31.235626},"address":"西康路699弄1-3号","type":"商务住宅;住宅区;住宅小区","bu":2},{"name":"淀湖山庄西区","position":{"O":31.107587,"M":121.06487199999998,"lng":121.064872,"lat":31.107587},"address":"祥凝浜路103弄","type":"商务住宅;住宅区;住宅小区","bu":0},{"name":"书香银苑","position":{"O":31.309573,"M":121.49868500000002,"lng":121.498685,"lat":31.309573},"address":"政立路717弄1号","type":"商务住宅;住宅区;住宅小区","bu":2},{"name":"兰馨公寓(进贤路)","position":{"O":31.221501,"M":121.46082000000001,"lng":121.46082,"lat":31.221501},"address":"茂名南路53号","type":"商务住宅;住宅区;住宅小区","bu":0},{"name":"华盛新苑","position":{"O":30.947684,"M":121.648235,"lng":121.648235,"lat":30.947684},"address":"新奉公路4595、4611弄","type":"商务住宅;住宅区;住宅小区","bu":0},{"name":"万顺水原墅","position":{"O":31.042592,"M":121.41593599999999,"lng":121.415936,"lat":31.042592},"address":"都市路777弄1-253号","type":"商务住宅;住宅区;别墅","bu":0},{"name":"政立苑","position":{"O":31.308462,"M":121.50172299999997,"lng":121.501723,"lat":31.308462},"address":"政立路639弄","type":"商务住宅;住宅区;住宅小区","bu":0},{"name":"宜居苑","position":{"O":31.003889,"M":121.14349700000002,"lng":121.143497,"lat":31.003889},"address":"彭丰路455弄","type":"商务住宅;住宅区;住宅小区","bu":0},{"name":"润渡佳苑","position":{"O":31.268143,"M":121.22570400000001,"lng":121.225704,"lat":31.268143},"address":"春亭路669号","type":"商务住宅;住宅区;住宅小区","bu":0},{"name":"成亿花园东区","position":{"O":31.298083,"M":121.43083100000001,"lng":121.430831,"lat":31.298083},"address":"原平路1028-1029弄","type":"商务住宅;住宅区;住宅小区","bu":1},{"name":"成亿宝盛家苑南区","position":{"O":31.354273,"M":121.41483700000003,"lng":121.414837,"lat":31.354273},"address":"水产西路858弄1-88号","type":"商务住宅;住宅区;住宅小区","bu":0},{"name":"通田商住楼","position":{"O":31.337392,"M":121.444702,"lng":121.444702,"lat":31.337392},"address":"通河路550号","type":"商务住宅;楼宇;商住两用楼宇","bu":1},{"name":"浦发香舍","position":{"O":31.365782,"M":121.24156900000003,"lng":121.241569,"lat":31.365782},"address":"嘉定镇福海路800弄17号","type":"商务住宅;住宅区;住宅小区","bu":0},{"name":"科苑大楼","position":{"O":31.208206,"M":121.58761500000003,"lng":121.587615,"lat":31.208206},"address":"碧波路5号","type":"商务住宅;楼宇;商务写字楼","bu":0},{"name":"凯旋一村","position":{"O":31.193372,"M":121.42459500000001,"lng":121.424595,"lat":31.193372},"address":"虹桥路772弄1-5号","type":"商务住宅;住宅区;住宅小区","bu":0},{"name":"新漕河泾国际商务中心A座","position":{"O":31.164469,"M":121.40425399999998,"lng":121.404254,"lat":31.164469},"address":"桂平路391号","type":"商务住宅;楼宇;商务写字楼","bu":0},{"name":"园南一村","position":{"O":31.141036,"M":121.44004899999999,"lng":121.440049,"lat":31.141036},"address":"百色路451弄","type":"商务住宅;住宅区;住宅小区","bu":1},{"name":"泓毅大厦","position":{"O":31.169469,"M":121.38804900000002,"lng":121.388049,"lat":31.169469},"address":"虹桥镇万源路2158号","type":"商务住宅;楼宇;商务写字楼","bu":0},{"name":"远中产业园4期","position":{"O":31.17227,"M":121.39295700000002,"lng":121.392957,"lat":31.17227},"address":"虹梅路2007号","type":"商务住宅;产业园区;产业园区","bu":0},{"name":"数据港大厦","position":{"O":31.297003,"M":121.43998299999998,"lng":121.439983,"lat":31.297003},"address":"江场西路387号","type":"商务住宅;楼宇;商务写字楼","bu":0},{"name":"御沁园","position":{"O":31.102034,"M":121.57538199999999,"lng":121.575382,"lat":31.102034},"address":"周康路869弄","type":"商务住宅;住宅区;别墅","bu":0},{"name":"新虹桥·君悦湾墅","position":{"O":31.162575,"M":121.27447000000001,"lng":121.27447,"lat":31.162575},"address":"徐泾镇联民路877弄","type":"商务住宅;住宅区;住宅小区","bu":0},{"name":"珐朵公馆","position":{"O":31.175546,"M":121.52748500000001,"lng":121.527485,"lat":31.175546},"address":"成山路1488号","type":"商务住宅;住宅区;住宅小区","bu":0},{"name":"旭辉玫瑰湾","position":{"O":31.167232,"M":121.09677299999998,"lng":121.096773,"lat":31.167232},"address":"清河湾路699弄(近漕盈路)","type":"商务住宅;住宅区;住宅小区","bu":0},{"name":"远景佳苑2期","position":{"O":31.282872,"M":121.414986,"lng":121.414986,"lat":31.282872},"address":"行知路380弄之1-71号","type":"商务住宅;住宅区;住宅小区","bu":0},{"name":"万里城小区","position":{"O":31.270592,"M":121.403841,"lng":121.403841,"lat":31.270592},"address":"新村路1881弄-1981弄","type":"商务住宅;住宅区;住宅小区","bu":0},{"name":"鹏健苑","position":{"O":31.174551,"M":121.55263300000001,"lng":121.552633,"lat":31.174551},"address":"鹏岳路70弄1-26号","type":"商务住宅;住宅区;住宅小区","bu":1},{"name":"裕福","position":{"O":31.221714,"M":121.44060999999999,"lng":121.44061,"lat":31.221714},"address":"愚园路433弄2-44号","type":"商务住宅;住宅区;住宅小区","bu":0},{"name":"汇景天地","position":{"O":31.198653,"M":121.47782000000001,"lng":121.47782,"lat":31.198653},"address":"瞿溪路968弄1-2号","type":"商务住宅;住宅区;住宅小区","bu":2},{"name":"尚街Loft五维空间创意园","position":{"O":31.308481,"M":121.54621199999997,"lng":121.546212,"lat":31.308481},"address":"军工路1436号","type":"商务住宅;产业园区;产业园区|科教文化服务;科教文化场所;科教文化场所","bu":0},{"name":"成亿宝盛家苑","position":{"O":31.355566,"M":121.41412000000003,"lng":121.41412,"lat":31.355566},"address":"水产西路859号","type":"商务住宅;住宅区;住宅区","bu":0},{"name":"浦发春晖新苑","position":{"O":31.337965,"M":121.58154100000002,"lng":121.581541,"lat":31.337965},"address":"春晖路446弄1-28号","type":"商务住宅;住宅区;住宅小区","bu":0},{"name":"张江东区人才公寓","position":{"O":31.246482,"M":121.70234199999999,"lng":121.702342,"lat":31.246482},"address":"胜利路836号","type":"商务住宅;住宅区;住宅小区","bu":0},{"name":"上海国际医学园区(康新公路)","position":{"O":31.10267,"M":121.62737099999998,"lng":121.627371,"lat":31.10267},"address":"康新公路3399弄","type":"商务住宅;产业园区;产业园区","bu":1},{"name":"南洋瑞都","position":{"O":31.021575,"M":121.409693,"lng":121.409693,"lat":31.021575},"address":"金平路777弄","type":"商务住宅;住宅区;住宅小区","bu":0},{"name":"宝虹水岸景苑西区","position":{"O":31.371097,"M":121.43390899999997,"lng":121.433909,"lat":31.371097},"address":"梅林路865弄1-5号","type":"商务住宅;住宅区;住宅小区","bu":0},{"name":"宝虹水岸景苑东区","position":{"O":31.37102,"M":121.43517800000001,"lng":121.435178,"lat":31.37102},"address":"梅林路866弄","type":"商务住宅;住宅区;住宅小区","bu":0},{"name":"花苑1区","position":{"O":30.832916,"M":121.42863399999999,"lng":121.428634,"lat":30.832916},"address":"花苑一区","type":"商务住宅;住宅区;住宅小区","bu":0},{"name":"浦发博园","position":{"O":31.151137,"M":121.53495900000001,"lng":121.534959,"lat":31.151137},"address":"御桥路269弄1-130号","type":"商务住宅;住宅区;住宅小区","bu":0},{"name":"万安世家","position":{"O":30.898367,"M":121.15690599999999,"lng":121.156906,"lat":30.898367},"address":"健康路415号","type":"商务住宅;住宅区;住宅小区","bu":0},{"name":"肖塘新村","position":{"O":30.961271,"M":121.44456300000002,"lng":121.444563,"lat":30.961271},"address":"吴塘路528弄","type":"商务住宅;住宅区;住宅小区","bu":0},{"name":"天虹四村","position":{"O":31.030521,"M":121.24840799999998,"lng":121.248408,"lat":31.030521},"address":"茸梅路194号","type":"商务住宅;住宅区;住宅小区","bu":1},{"name":"中星海兰苑","position":{"O":31.265194,"M":121.33637199999998,"lng":121.336372,"lat":31.265194},"address":"华江支路677弄","type":"商务住宅;住宅区;住宅小区","bu":0},{"name":"巴黎公寓","position":{"O":31.216692,"M":121.47163799999998,"lng":121.471638,"lat":31.216692},"address":"重庆南路169弄之1-110号","type":"商务住宅;住宅区;住宅小区","bu":0},{"name":"百欣苑","position":{"O":31.170675,"M":121.751821,"lng":121.751821,"lat":31.170675},"address":"东亭路836弄","type":"商务住宅;住宅区;住宅小区","bu":1},{"name":"西朱新村","position":{"O":31.374932,"M":121.49060700000001,"lng":121.490607,"lat":31.374932},"address":"西朱新村64","type":"商务住宅;住宅区;住宅小区","bu":0},{"name":"奉浦二村","position":{"O":30.93974,"M":121.46237400000001,"lng":121.462374,"lat":30.93974},"address":"南桥镇韩村路173号","type":"商务住宅;住宅区;住宅小区","bu":1},{"name":"康桥半岛秀溪公寓","position":{"O":31.128365,"M":121.57645200000002,"lng":121.576452,"lat":31.128365},"address":"秀沿路1028弄2支弄120号","type":"商务住宅;住宅区;住宅小区","bu":0},{"name":"华兴小区(申浜路)","position":{"O":31.069762,"M":121.33858600000002,"lng":121.338586,"lat":31.069762},"address":"陈春公路801弄","type":"商务住宅;住宅区;住宅小区","bu":0},{"name":"昆阳小区(东川路)","position":{"O":30.998957,"M":121.37281100000001,"lng":121.372811,"lat":30.998957},"address":"天星路241弄","type":"商务住宅;住宅区;住宅小区","bu":0},{"name":"航城园","position":{"O":31.147902,"M":121.751305,"lng":121.751305,"lat":31.147902},"address":"施湾三路555弄1-36号","type":"商务住宅;住宅区;住宅小区","bu":0},{"name":"生茂养园","position":{"O":31.040807,"M":121.590145,"lng":121.590145,"lat":31.040807},"address":"沪南路5288号","type":"商务住宅;住宅区;住宅小区","bu":0},{"name":"万源城","position":{"O":31.149393,"M":121.39763199999999,"lng":121.397632,"lat":31.149393},"address":"古美街道平吉路509号","type":"商务住宅;住宅区;住宅小区","bu":0},{"name":"文怡苑1期","position":{"O":31.138583,"M":121.60558300000002,"lng":121.605583,"lat":31.138583},"address":"秀沿路2585弄1-30号","type":"商务住宅;住宅区;住宅小区","bu":0},{"name":"怡林花园","position":{"O":31.066602,"M":121.24633299999999,"lng":121.246333,"lat":31.066602},"address":"茸盛路北200米","type":"商务住宅;住宅区;住宅小区|住宿服务;旅馆招待所;旅馆招待所","bu":1},{"name":"清风名苑","position":{"O":30.909629,"M":121.81410499999998,"lng":121.814105,"lat":30.909629},"address":"池月路848弄","type":"商务住宅;住宅区;住宅小区","bu":0},{"name":"汇宝公寓北区","position":{"O":31.158487,"M":121.34902799999998,"lng":121.349028,"lat":31.158487},"address":"吴宝路139弄7号-16号","type":"商务住宅;住宅区;住宅小区","bu":0},{"name":"蓬莱苑(外青松公路)","position":{"O":31.143987,"M":121.12768800000003,"lng":121.127688,"lat":31.143987},"address":"外青松公路4607弄1-8号楼","type":"商务住宅;住宅区;住宅小区","bu":0},{"name":"三桥小区南区","position":{"O":31.221316,"M":121.60853199999997,"lng":121.608532,"lat":31.221316},"address":"金桥路3379弄","type":"商务住宅;住宅区;住宅小区","bu":0},{"name":"建中路126弄小区","position":{"O":31.204017,"M":121.6137,"lng":121.6137,"lat":31.204017},"address":"建中路126弄1-25号","type":"商务住宅;住宅区;住宅小区","bu":0},{"name":"浦虹苑","position":{"O":31.186953,"M":121.51914399999998,"lng":121.519144,"lat":31.186953},"address":"齐恒路118弄1-25号","type":"商务住宅;住宅区;住宅小区","bu":0},{"name":"东航机组公寓","position":{"O":31.164403,"M":121.774654,"lng":121.774654,"lat":31.164403},"address":"浦东国际机场河滨西路基地一路63号","type":"商务住宅;住宅区;宿舍","bu":0},{"name":"曙光东苑","position":{"O":31.19174,"M":121.71130499999998,"lng":121.711305,"lat":31.19174},"address":"学北路337弄1-19号","type":"商务住宅;住宅区;住宅小区","bu":0},{"name":"北城小区(北城壕路)","position":{"O":31.197675,"M":121.70119599999998,"lng":121.701196,"lat":31.197675},"address":"北城壕路111弄1-10号","type":"商务住宅;住宅区;住宅小区","bu":0},{"name":"佳乐苑","position":{"O":31.163183,"M":121.14094399999999,"lng":121.140944,"lat":31.163183},"address":"盈港东路8300弄81号","type":"商务住宅;住宅区;住宅小区","bu":1},{"name":"南翔高科技产业园区","position":{"O":31.307985,"M":121.29188399999998,"lng":121.291884,"lat":31.307985},"address":"嘉美路258号(近胜辛南路)","type":"商务住宅;产业园区;产业园区","bu":0},{"name":"景都公寓","position":{"O":31.168073,"M":121.271973,"lng":121.271973,"lat":31.168073},"address":"徐泾镇育才路451号","type":"商务住宅;住宅区;住宅小区","bu":0},{"name":"南京大楼","position":{"O":31.237423,"M":121.48537599999997,"lng":121.485376,"lat":31.237423},"address":"南京东路233号","type":"商务住宅;楼宇;商务写字楼","bu":2},{"name":"永达城市公寓","position":{"O":31.187622,"M":121.69576,"lng":121.69576,"lat":31.187622},"address":"南桥路707弄1-40号","type":"商务住宅;住宅区;住宅小区","bu":0},{"name":"虹南小区","position":{"O":31.191554,"M":121.41805099999999,"lng":121.418051,"lat":31.191554},"address":"中山西路1432弄","type":"商务住宅;住宅区;住宅小区","bu":0},{"name":"中星恬园","position":{"O":31.22916,"M":121.549398,"lng":121.549398,"lat":31.22916},"address":"民生路999弄1-40号","type":"商务住宅;住宅区;住宅小区","bu":1},{"name":"上海建工大厦","position":{"O":31.249381,"M":121.50151499999998,"lng":121.501515,"lat":31.249381},"address":"东大名路666号","type":"商务住宅;楼宇;商务写字楼","bu":2},{"name":"南桥小区","position":{"O":31.19116,"M":121.70703200000003,"lng":121.707032,"lat":31.19116},"address":"南桥路237弄2-42号、219-223号","type":"商务住宅;住宅区;住宅小区","bu":0},{"name":"嘉天汇","position":{"O":31.224018,"M":121.43828100000002,"lng":121.438281,"lat":31.224018},"address":"乌鲁木齐北路30弄1-16号","type":"商务住宅;住宅区;住宅小区","bu":1},{"name":"华茂苑(川沙路)","position":{"O":31.199057,"M":121.69811500000003,"lng":121.698115,"lat":31.199057},"address":"川沙路4625弄1-10号","type":"商务住宅;住宅区;住宅小区","bu":0},{"name":"华京商务大厦","position":{"O":31.180852,"M":121.420996,"lng":121.420996,"lat":31.180852},"address":"钦州北路188号","type":"商务住宅;楼宇;商务写字楼","bu":0},{"name":"横港小区","position":{"O":31.114819,"M":121.26369299999999,"lng":121.263693,"lat":31.114819},"address":"泗凤路298弄1-200号","type":"商务住宅;住宅区;住宅小区","bu":0},{"name":"合兴坊","position":{"O":31.225762,"M":121.49041799999998,"lng":121.490418,"lat":31.225762},"address":"南王医马弄27弄之1-6号","type":"商务住宅;住宅区;住宅小区","bu":0},{"name":"百花2区","position":{"O":31.109196,"M":121.58576399999998,"lng":121.585764,"lat":31.109196},"address":"周浦镇祝家港路225号","type":"商务住宅;住宅区;住宅小区","bu":0},{"name":"申莘三村","position":{"O":31.09056,"M":121.37965300000002,"lng":121.379653,"lat":31.09056},"address":"申北路350弄","type":"商务住宅;住宅区;住宅小区","bu":0},{"name":"天元大厦","position":{"O":31.098724,"M":121.42039999999997,"lng":121.4204,"lat":31.098724},"address":"老沪闵路1979号","type":"商务住宅;楼宇;商务写字楼","bu":2},{"name":"凌阳大厦","position":{"O":31.204668,"M":121.59817700000002,"lng":121.598177,"lat":31.204668},"address":"祖冲之路1077号","type":"商务住宅;楼宇;商务写字楼","bu":2},{"name":"奉德苑","position":{"O":30.906393,"M":121.63908800000002,"lng":121.639088,"lat":30.906393},"address":"邮电路269弄","type":"商务住宅;住宅区;住宅小区","bu":0},{"name":"亭升苑","position":{"O":30.882972,"M":121.322611,"lng":121.322611,"lat":30.882972},"address":"亭林镇亭升路88弄","type":"商务住宅;住宅区;住宅小区","bu":0},{"name":"陈湾小区","position":{"O":30.959638,"M":121.44790899999998,"lng":121.447909,"lat":30.959638},"address":"吴塘路10号","type":"商务住宅;住宅区;住宅小区","bu":1},{"name":"枫林雅苑","position":{"O":31.030882,"M":121.59371499999997,"lng":121.593715,"lat":31.030882},"address":"沪南公路5890号","type":"商务住宅;住宅区;别墅","bu":0},{"name":"湖山在望花园","position":{"O":31.0676,"M":121.40952600000003,"lng":121.409526,"lat":31.0676},"address":"都市路2566弄","type":"商务住宅;住宅区;住宅小区","bu":0},{"name":"金兰雅墅","position":{"O":31.40294,"M":121.36175100000003,"lng":121.361751,"lat":31.40294},"address":"美兰湖路98弄","type":"商务住宅;住宅区;别墅","bu":0},{"name":"逸兴家园","position":{"O":31.348084,"M":121.49944800000003,"lng":121.499448,"lat":31.348084},"address":"现场逸仙路3456弄(近军工路口)","type":"商务住宅;住宅区;住宅小区","bu":0},{"name":"杨泰苑","position":{"O":31.373029,"M":121.43835100000001,"lng":121.438351,"lat":31.373029},"address":"杨桃路185弄","type":"商务住宅;住宅区;住宅小区","bu":0},{"name":"泰宸家园","position":{"O":31.416791,"M":121.27944600000001,"lng":121.279446,"lat":31.416791},"address":"新建一路1658弄","type":"商务住宅;住宅区;住宅小区","bu":0},{"name":"久事西郊花园","position":{"O":31.180236,"M":121.30934000000002,"lng":121.30934,"lat":31.180236},"address":"谢卫路228弄1-560号","type":"商务住宅;住宅区;住宅小区","bu":0},{"name":"虹桥湖畔艺墅","position":{"O":31.14344,"M":121.22688,"lng":121.22688,"lat":31.14344},"address":"业辉路222弄41号","type":"商务住宅;住宅区;别墅","bu":1},{"name":"九新商务大厦","position":{"O":31.132111,"M":121.31696599999998,"lng":121.316966,"lat":31.132111},"address":"九新公路90弄3号","type":"商务住宅;楼宇;商务写字楼","bu":0},{"name":"金沙御墅","position":{"O":31.233961,"M":121.37192600000003,"lng":121.371926,"lat":31.233961},"address":"金沙江路1989号","type":"商务住宅;住宅区;别墅","bu":2},{"name":"上海星港1期","position":{"O":31.244554,"M":121.41226699999999,"lng":121.412267,"lat":31.244554},"address":"武宁路955弄1号","type":"商务住宅;住宅区;住宅小区","bu":0},{"name":"焊点一零八八公社","position":{"O":31.246634,"M":121.45069699999999,"lng":121.450697,"lat":31.246634},"address":"长安路1088号(天目西路)","type":"商务住宅;楼宇;商务写字楼","bu":2},{"name":"申强公寓","position":{"O":31.258002,"M":121.49118099999998,"lng":121.491181,"lat":31.258002},"address":"海伦路350弄1-4号","type":"商务住宅;住宅区;住宅小区","bu":0},{"name":"金色家园2期","position":{"O":31.237845,"M":121.46867500000002,"lng":121.468675,"lat":31.237845},"address":"黄浦黄河路345号","type":"商务住宅;商务住宅相关;商务住宅相关","bu":0},{"name":"明泉江南苑","position":{"O":31.171042,"M":121.37784899999997,"lng":121.377849,"lat":31.171042},"address":"虹桥镇虹秀路78弄","type":"商务住宅;住宅区;住宅小区","bu":2},{"name":"保利·御樽苑","position":{"O":31.205966,"M":121.651097,"lng":121.651097,"lat":31.205966},"address":"唐兴路191弄1号-35号","type":"商务住宅;住宅区;住宅小区","bu":0},{"name":"皇府别墅","position":{"O":31.260859,"M":121.324908,"lng":121.324908,"lat":31.260859},"address":"曹安路2795号","type":"商务住宅;住宅区;别墅","bu":1},{"name":"普善新苑(普善路)","position":{"O":31.260046,"M":121.45395000000002,"lng":121.45395,"lat":31.260046},"address":"普善路390弄之1-2号","type":"商务住宅;住宅区;住宅小区","bu":0},{"name":"祥安公寓(局门路)","position":{"O":31.206027,"M":121.48060099999998,"lng":121.480601,"lat":31.206027},"address":"斜土路251弄1-4号","type":"商务住宅;住宅区;住宅小区","bu":0},{"name":"天池一村","position":{"O":31.185698,"M":121.54390899999999,"lng":121.543909,"lat":31.185698},"address":"北艾路73弄后门、155弄后门、227弄后门","type":"商务住宅;住宅区;住宅小区","bu":0},{"name":"田林花苑","position":{"O":31.17146,"M":121.41931499999998,"lng":121.419315,"lat":31.17146},"address":"田林路90弄-1-16号、1-26号","type":"商务住宅;住宅区;住宅小区","bu":0},{"name":"永和雅园","position":{"O":31.287072,"M":121.42988400000002,"lng":121.429884,"lat":31.287072},"address":"永和路880弄","type":"商务住宅;住宅区;住宅小区","bu":0},{"name":"葑润华庭北1区","position":{"O":31.323719,"M":121.38074499999999,"lng":121.380745,"lat":31.323719},"address":"祁华路58弄","type":"商务住宅;住宅区;住宅小区","bu":0},{"name":"绿地新丰苑","position":{"O":31.245834,"M":121.355798,"lng":121.355798,"lat":31.245834},"address":"丰庄西路460弄之1-18号","type":"商务住宅;住宅区;住宅小区","bu":0},{"name":"耀光中环国际","position":{"O":31.267283,"M":121.37743599999999,"lng":121.377436,"lat":31.267283},"address":"祁连山南路2888号","type":"商务住宅;楼宇;商务写字楼","bu":2},{"name":"海华小区","position":{"O":31.21147,"M":121.40828499999998,"lng":121.408285,"lat":31.21147},"address":"遵义路412弄之1-2号","type":"商务住宅;住宅区;住宅小区","bu":1},{"name":"晨讯科技大楼B楼","position":{"O":31.220103,"M":121.35978699999998,"lng":121.359787,"lat":31.220103},"address":"金钟路633号","type":"商务住宅;楼宇;商务写字楼","bu":2},{"name":"上海体育国家大学科技园","position":{"O":31.314342,"M":121.523638,"lng":121.523638,"lat":31.314342},"address":"恒仁路350号(上海体育学院,中原城市广场)","type":"商务住宅;产业园区;产业园区","bu":0},{"name":"河滨公寓","position":{"O":31.03192,"M":121.19726600000001,"lng":121.197266,"lat":31.03192},"address":"三新北路900弄701-719号","type":"商务住宅;住宅区;住宅小区","bu":0},{"name":"华亭别墅","position":{"O":31.02999,"M":121.18971099999999,"lng":121.189711,"lat":31.02999},"address":"松江新城文诚路1800弄","type":"商务住宅;住宅区;别墅","bu":0},{"name":"南泉小区(南泉路)","position":{"O":31.213072,"M":121.522174,"lng":121.522174,"lat":31.213072},"address":"南泉路1250弄1-21号","type":"商务住宅;住宅区;住宅小区","bu":2},{"name":"众众家园北区","position":{"O":31.110356,"M":121.38246600000002,"lng":121.382466,"lat":31.110356},"address":"莘建东路388弄","type":"商务住宅;住宅区;住宅小区","bu":0},{"name":"贝港南区","position":{"O":30.907649,"M":121.44615799999997,"lng":121.446158,"lat":30.907649},"address":"南桥镇解放西路秀南一路","type":"商务住宅;住宅区;住宅小区","bu":0},{"name":"五原小区","position":{"O":31.213849,"M":121.44838600000003,"lng":121.448386,"lat":31.213849},"address":"五原路50弄2-10号","type":"商务住宅;住宅区;住宅小区","bu":0},{"name":"惠祥公寓","position":{"O":31.199443,"M":121.487753,"lng":121.487753,"lat":31.199443},"address":"制造局路833弄19号","type":"商务住宅;住宅区;住宅小区","bu":0},{"name":"上钢六村","position":{"O":31.171711,"M":121.49030600000003,"lng":121.490306,"lat":31.171711},"address":"成山路143号、长清路75弄1-7号","type":"商务住宅;住宅区;住宅小区","bu":0},{"name":"菊园新村","position":{"O":31.394158,"M":121.25545299999999,"lng":121.255453,"lat":31.394158},"address":"环城路160弄1-61号","type":"商务住宅;住宅区;住宅小区","bu":0},{"name":"新华别墅(新华路)","position":{"O":31.201905,"M":121.427299,"lng":121.427299,"lat":31.201905},"address":"新华路329弄之15-71号","type":"商务住宅;住宅区;别墅","bu":0},{"name":"科技大楼(解放东路)","position":{"O":30.917456,"M":121.47637600000002,"lng":121.476376,"lat":30.917456},"address":"南桥镇解放东路871号","type":"商务住宅;楼宇;商务写字楼","bu":0},{"name":"谷水苑","position":{"O":31.021057,"M":121.240519,"lng":121.240519,"lat":31.021057},"address":"荣乐中路28弄63号","type":"商务住宅;住宅区;住宅小区","bu":0},{"name":"东鼎·名人府邸","position":{"O":31.037821,"M":121.20829300000003,"lng":121.208293,"lat":31.037821},"address":"滨湖路310弄","type":"商务住宅;住宅区;住宅小区","bu":0},{"name":"协合紫薇园","position":{"O":31.144642,"M":121.42982,"lng":121.42982,"lat":31.144642},"address":"老沪闵路680弄之1-18号","type":"商务住宅;住宅区;住宅小区","bu":0},{"name":"海星大楼","position":{"O":31.106916,"M":121.37876599999998,"lng":121.378766,"lat":31.106916},"address":"莘庄镇莘建路65号","type":"商务住宅;楼宇;商务写字楼","bu":0},{"name":"翡翠国际花苑","position":{"O":31.154589,"M":121.10593599999999,"lng":121.105936,"lat":31.154589},"address":"胜利路76弄6号402室","type":"商务住宅;住宅区;住宅小区","bu":2},{"name":"景港名人苑","position":{"O":31.149759,"M":121.10093899999998,"lng":121.100939,"lat":31.149759},"address":"青浦港俞路1088弄25-69号","type":"商务住宅;住宅区;住宅小区","bu":0},{"name":"永兆豪庭东区","position":{"O":31.173499,"M":121.39629000000002,"lng":121.39629,"lat":31.173499},"address":"虹梅路2588弄1-7号","type":"商务住宅;住宅区;住宅小区","bu":0},{"name":"留园","position":{"O":31.218738,"M":121.45298100000002,"lng":121.452981,"lat":31.218738},"address":"长乐路672弄1-34号","type":"商务住宅;住宅区;住宅小区","bu":0},{"name":"瑞福南大楼","position":{"O":31.22893,"M":121.481134,"lng":121.481134,"lat":31.22893},"address":"广西南路23号","type":"商务住宅;住宅区;住宅小区","bu":0},{"name":"人民大楼","position":{"O":31.226392,"M":121.48375099999998,"lng":121.483751,"lat":31.226392},"address":"黄浦人民路875号、人民路879号","type":"商务住宅;楼宇;商住两用楼宇","bu":1},{"name":"龙门社区","position":{"O":31.217141,"M":121.49156399999998,"lng":121.491564,"lat":31.217141},"address":"先棉祠街32弄1-5号","type":"商务住宅;住宅区;住宅小区","bu":0},{"name":"小东门社区","position":{"O":31.22023,"M":121.49662599999999,"lng":121.496626,"lat":31.22023},"address":"和顺街26弄2-10号","type":"商务住宅;住宅区;住宅小区","bu":0},{"name":"欧银中心","position":{"O":31.172045,"M":121.374437,"lng":121.374437,"lat":31.172045},"address":"虹桥镇吴中路1369号","type":"商务住宅;楼宇;商务写字楼","bu":2},{"name":"和源名邸","position":{"O":31.265486,"M":121.46350000000001,"lng":121.4635,"lat":31.265486},"address":"和田路280","type":"商务住宅;住宅区;住宅小区","bu":0},{"name":"安信商业广场F区","position":{"O":31.394638,"M":121.48860000000002,"lng":121.4886,"lat":31.394638},"address":"牡丹江路1255号","type":"商务住宅;楼宇;商务写字楼","bu":0},{"name":"成发苑","position":{"O":31.16294,"M":121.49670300000002,"lng":121.496703,"lat":31.16294},"address":"后长街78号","type":"商务住宅;住宅区;住宅小区","bu":0},{"name":"同润加州","position":{"O":31.091096,"M":121.35154699999998,"lng":121.351547,"lat":31.091096},"address":"新南路501号","type":"商务住宅;住宅区;住宅小区","bu":1},{"name":"六里二村","position":{"O":31.186047,"M":121.51853399999999,"lng":121.518534,"lat":31.186047},"address":"六里二村1-12号","type":"商务住宅;住宅区;住宅小区","bu":1},{"name":"永业仁德坊","position":{"O":31.204484,"M":121.48037199999999,"lng":121.480372,"lat":31.204484},"address":"斜土路298弄1-7号","type":"商务住宅;住宅区;住宅小区","bu":1},{"name":"丽景苑(虹桥路)","position":{"O":31.195578,"M":121.41752400000001,"lng":121.417524,"lat":31.195578},"address":"虹桥路1060弄1-3号","type":"商务住宅;住宅区;住宅小区","bu":0},{"name":"三联大厦(华京路)","position":{"O":31.32082,"M":121.6062,"lng":121.6062,"lat":31.32082},"address":"外高桥保税区五号门华京路8号","type":"商务住宅;楼宇;商务写字楼","bu":0},{"name":"协和海琴花园","position":{"O":31.084714,"M":121.27842599999997,"lng":121.278426,"lat":31.084714},"address":"洞泾镇长兴路98弄40-107号","type":"商务住宅;住宅区;住宅小区","bu":1},{"name":"欧洲凯城园","position":{"O":31.255007,"M":121.52596199999999,"lng":121.525962,"lat":31.255007},"address":"许昌路328弄1-21号","type":"商务住宅;住宅区;住宅小区","bu":0},{"name":"茂兴大厦","position":{"O":31.210715,"M":121.514995,"lng":121.514995,"lat":31.210715},"address":"茂兴路55弄1-8号","type":"商务住宅;住宅区;住宅小区","bu":0},{"name":"宇泰景苑","position":{"O":31.26428,"M":121.50309099999998,"lng":121.503091,"lat":31.26428},"address":"飞虹路288弄1-12号","type":"商务住宅;住宅区;住宅小区","bu":0},{"name":"江南世纪新苑","position":{"O":31.205173,"M":121.48185799999999,"lng":121.481858,"lat":31.205173},"address":"局门路295弄1-5号","type":"商务住宅;住宅区;住宅小区","bu":1},{"name":"复兴小区","position":{"O":31.222553,"M":121.49207799999999,"lng":121.492078,"lat":31.222553},"address":"复兴东路663弄1-7号","type":"商务住宅;住宅区;住宅小区","bu":0},{"name":"蓝天东区","position":{"O":31.015776,"M":121.25951299999997,"lng":121.259513,"lat":31.015776},"address":"荣乐东路1763弄1-125号","type":"商务住宅;住宅区;住宅小区","bu":0},{"name":"茸平苑","position":{"O":31.036838,"M":121.24370799999997,"lng":121.243708,"lat":31.036838},"address":"茸平路288弄-1-60号","type":"商务住宅;住宅区;住宅小区","bu":0},{"name":"康兴花园","position":{"O":31.152667,"M":121.41942699999998,"lng":121.419427,"lat":31.152667},"address":"桂林西街358弄1-69号","type":"商务住宅;住宅区;住宅小区","bu":0},{"name":"鼎邦俪池","position":{"O":31.198091,"M":121.373449,"lng":121.373449,"lat":31.198091},"address":"青溪路288弄11号","type":"商务住宅;住宅区;住宅小区","bu":0},{"name":"广德苑","position":{"O":31.246079,"M":121.36863399999999,"lng":121.368634,"lat":31.246079},"address":"延川路399弄","type":"商务住宅;住宅区;住宅小区","bu":0},{"name":"明杨豪苑","position":{"O":31.267635,"M":121.48773299999999,"lng":121.487733,"lat":31.267635},"address":"欧阳路218弄之1-3号","type":"商务住宅;住宅区;住宅小区","bu":2},{"name":"宁和公寓","position":{"O":31.269779,"M":121.44894599999998,"lng":121.448946,"lat":31.269779},"address":"万荣路30弄","type":"商务住宅;住宅区;住宅小区","bu":0},{"name":"华延公寓","position":{"O":31.259484,"M":121.42786999999998,"lng":121.42787,"lat":31.259484},"address":"延长西路677弄之28-34号","type":"商务住宅;住宅区;住宅小区","bu":0},{"name":"中星凉城新苑","position":{"O":31.297884,"M":121.470484,"lng":121.470484,"lat":31.297884},"address":"凉城路815弄1-9号","type":"商务住宅;住宅区;住宅小区","bu":0},{"name":"银杨大厦","position":{"O":31.274511,"M":121.51462800000002,"lng":121.514628,"lat":31.274511},"address":"控江路1700号","type":"商务住宅;楼宇;商住两用楼宇","bu":0},{"name":"共富富都园","position":{"O":31.347363,"M":121.42717500000003,"lng":121.427175,"lat":31.347363},"address":"联泰路158弄1-43号","type":"商务住宅;住宅区;住宅小区","bu":0},{"name":"潼港一村","position":{"O":31.342658,"M":121.57649400000003,"lng":121.576494,"lat":31.342658},"address":"清溪路80弄,张扬北路5428弄","type":"商务住宅;住宅区;住宅小区","bu":0},{"name":"静安锦都","position":{"O":31.235604,"M":121.43682899999999,"lng":121.436829,"lat":31.235604},"address":"延平路518弄1-2号","type":"商务住宅;住宅区;住宅小区","bu":0},{"name":"南丹小区","position":{"O":31.191236,"M":121.43030899999997,"lng":121.430309,"lat":31.191236},"address":"宜山路50弄之1-6号","type":"商务住宅;住宅区;住宅小区","bu":0},{"name":"法华苑","position":{"O":31.20322,"M":121.43214599999999,"lng":121.432146,"lat":31.20322},"address":"法华镇路123弄1-4号","type":"商务住宅;住宅区;住宅小区","bu":1},{"name":"银都名庭","position":{"O":31.232661,"M":121.41056800000001,"lng":121.410568,"lat":31.232661},"address":"杏山路8弄1-7号","type":"商务住宅;住宅区;住宅小区","bu":0},{"name":"春江锦庐","position":{"O":31.132444,"M":121.38589200000001,"lng":121.385892,"lat":31.132444},"address":"古美西路752弄(近龙茗路)","type":"商务住宅;住宅区;住宅小区","bu":0},{"name":"祜欣公寓","position":{"O":31.153784,"M":121.390286,"lng":121.390286,"lat":31.153784},"address":"东兰路751弄","type":"商务住宅;住宅区;住宅小区","bu":0},{"name":"平阳二村","position":{"O":31.139265,"M":121.39011600000003,"lng":121.390116,"lat":31.139265},"address":"顾戴路1075弄之1-33号","type":"商务住宅;住宅区;住宅小区","bu":0},{"name":"平南三四村","position":{"O":31.152204,"M":121.39050099999997,"lng":121.390501,"lat":31.152204},"address":"万源路1185弄","type":"商务住宅;住宅区;住宅小区","bu":0},{"name":"成亿家园","position":{"O":31.144423,"M":121.40334999999999,"lng":121.40335,"lat":31.144423},"address":"闵行顾戴路251号","type":"商务住宅;住宅区;住宅小区","bu":0},{"name":"金领华庭","position":{"O":31.14158,"M":121.406545,"lng":121.406545,"lat":31.14158},"address":"古美路350弄","type":"商务住宅;住宅区;住宅小区","bu":0},{"name":"古美十村","position":{"O":31.142048,"M":121.407692,"lng":121.407692,"lat":31.142048},"address":"平阳路111弄","type":"商务住宅;住宅区;住宅小区","bu":2},{"name":"罗秀新苑","position":{"O":31.126993,"M":121.41028799999998,"lng":121.410288,"lat":31.126993},"address":"梅陇镇罗秀路1651弄","type":"商务住宅;住宅区;住宅小区","bu":0},{"name":"高华小区","position":{"O":31.002988,"M":121.42219699999998,"lng":121.422197,"lat":31.002988},"address":"沪闵路241弄1-129号","type":"商务住宅;住宅区;住宅小区","bu":0},{"name":"光电大楼","position":{"O":31.020555,"M":121.26231999999999,"lng":121.26232,"lat":31.020555},"address":"松卫北路819号","type":"商务住宅;楼宇;商务写字楼","bu":0},{"name":"白云新村(茸城路)","position":{"O":31.006144,"M":121.25390700000003,"lng":121.253907,"lat":31.006144},"address":"中山东路17弄","type":"商务住宅;住宅区;住宅小区","bu":0},{"name":"景怡花苑","position":{"O":31.041314,"M":121.19889599999999,"lng":121.198896,"lat":31.041314},"address":"龙源路99弄","type":"商务住宅;住宅区;住宅小区","bu":0},{"name":"公元三村","position":{"O":31.121629,"M":121.57234499999998,"lng":121.572345,"lat":31.121629},"address":"梓康路51弄之110-207号","type":"商务住宅;住宅区;住宅小区","bu":0},{"name":"金禾新苑","position":{"O":31.149323,"M":121.52846899999997,"lng":121.528469,"lat":31.149323},"address":"三林镇环林东路271弄","type":"商务住宅;住宅区;住宅小区","bu":0},{"name":"云顶别墅","position":{"O":31.122981,"M":121.27175699999998,"lng":121.271757,"lat":31.122981},"address":"松江泗泾镇泗陈公路388弄(方泗公路交界口)","type":"商务住宅;住宅区;别墅","bu":0},{"name":"南村小区","position":{"O":31.118304,"M":121.273976,"lng":121.273976,"lat":31.118304},"address":"泗泾江川北路500弄19号","type":"商务住宅;住宅区;住宅小区","bu":0},{"name":"开天公寓","position":{"O":31.124996,"M":121.32268099999999,"lng":121.322681,"lat":31.124996},"address":"九新公路307弄22-35号","type":"商务住宅;住宅区;住宅小区","bu":0},{"name":"志成花苑知雅汇","position":{"O":31.152038,"M":121.317409,"lng":121.317409,"lat":31.152038},"address":"涞坊路333弄","type":"商务住宅;住宅区;住宅小区","bu":1},{"name":"陈家塘","position":{"O":31.150569,"M":121.34796799999998,"lng":121.347968,"lat":31.150569},"address":"七宝镇七莘路2927弄","type":"商务住宅;住宅区;住宅小区|地名地址信息;普通地名;村庄级地名","bu":0},{"name":"梦丹苑","position":{"O":31.147054,"M":121.13216299999999,"lng":121.132163,"lat":31.147054},"address":"青湖路4625弄","type":"商务住宅;住宅区;住宅小区","bu":0},{"name":"庙泾新村","position":{"O":30.917334,"M":121.49023899999997,"lng":121.490239,"lat":30.917334},"address":"南桥镇望远南路","type":"商务住宅;住宅区;住宅小区","bu":0},{"name":"教师新村(新欣东路)","position":{"O":30.984273,"M":121.873334,"lng":121.873334,"lat":30.984273},"address":"东环路","type":"商务住宅;住宅区;住宅小区","bu":0},{"name":"寿山坊","position":{"O":31.152515,"M":121.42244199999999,"lng":121.422442,"lat":31.152515},"address":"桂林西街201弄1-51号","type":"商务住宅;住宅区;住宅小区","bu":0},{"name":"长兴坊","position":{"O":31.155926,"M":121.41513800000001,"lng":121.415138,"lat":31.155926},"address":"桂林西街15弄之1-85号","type":"商务住宅;住宅区;住宅小区","bu":0},{"name":"寿益坊","position":{"O":31.15141,"M":121.417036,"lng":121.417036,"lat":31.15141},"address":"桂林西街85弄1-71号","type":"商务住宅;住宅区;住宅小区","bu":0},{"name":"九星苑","position":{"O":31.15084,"M":121.380336,"lng":121.380336,"lat":31.15084},"address":"东兰路1349弄","type":"商务住宅;住宅区;住宅小区","bu":0},{"name":"世纪苑(上中西路)","position":{"O":31.131718,"M":121.407083,"lng":121.407083,"lat":31.131718},"address":"莲花南路161号、莲花南路155弄","type":"商务住宅;住宅区;住宅小区","bu":0},{"name":"金塘小区","position":{"O":31.147957,"M":121.42459500000001,"lng":121.424595,"lat":31.147957},"address":"老沪闵路333弄1-97号","type":"商务住宅;住宅区;住宅小区","bu":0},{"name":"名师华苑","position":{"O":31.231298,"M":121.39529199999998,"lng":121.395292,"lat":31.231298},"address":"金沙江路895弄1-69号","type":"商务住宅;住宅区;住宅小区","bu":0},{"name":"安龙小区","position":{"O":31.21205,"M":121.38614899999999,"lng":121.386149,"lat":31.21205},"address":"威宁路276弄1号-20号","type":"商务住宅;住宅区;住宅小区","bu":0},{"name":"天华公寓","position":{"O":31.211811,"M":121.39497599999999,"lng":121.394976,"lat":31.211811},"address":"芙蓉江路276弄1号","type":"商务住宅;住宅区;住宅小区","bu":0},{"name":"沪金大楼","position":{"O":31.245945,"M":121.46994999999998,"lng":121.46995,"lat":31.245945},"address":"天目中路240号","type":"商务住宅;住宅区;住宅小区","bu":1},{"name":"宏莲馨苑","position":{"O":31.185512,"M":121.550141,"lng":121.550141,"lat":31.185512},"address":"莲园路151弄1-22号","type":"商务住宅;住宅区;住宅小区","bu":0},{"name":"金虹大厦","position":{"O":31.183139,"M":121.39959099999999,"lng":121.399591,"lat":31.183139},"address":"吴中路598弄1-3号","type":"商务住宅;住宅区;住宅小区","bu":0},{"name":"北蔡苑","position":{"O":31.179557,"M":121.551626,"lng":121.551626,"lat":31.179557},"address":"莲安西路185弄6-29号","type":"商务住宅;住宅区;住宅小区","bu":0},{"name":"南门大厦","position":{"O":31.215299,"M":121.49748899999997,"lng":121.497489,"lat":31.215299},"address":"黄家路28号","type":"商务住宅;楼宇;商务写字楼","bu":0},{"name":"绿地名人坊","position":{"O":31.218189,"M":121.49793,"lng":121.49793,"lat":31.218189},"address":"中华路429弄之1-8号","type":"商务住宅;住宅区;住宅小区","bu":0},{"name":"城建设计大厦","position":{"O":31.190436,"M":121.51331299999998,"lng":121.513313,"lat":31.190436},"address":"东方路3447号","type":"商务住宅;楼宇;商务写字楼","bu":0},{"name":"安天大厦","position":{"O":31.239457,"M":121.40457700000002,"lng":121.404577,"lat":31.239457},"address":"兰溪路145号","type":"商务住宅;楼宇;商务写字楼","bu":0},{"name":"漕河景苑","position":{"O":31.164637,"M":121.42987499999998,"lng":121.429875,"lat":31.164637},"address":"钦州路231弄1-21号","type":"商务住宅;住宅区;住宅小区","bu":0},{"name":"宗鑫公寓","position":{"O":31.243112,"M":121.44903699999998,"lng":121.449037,"lat":31.243112},"address":"安远路16弄4-5号","type":"商务住宅;住宅区;住宅小区","bu":0},{"name":"曹家巷小区","position":{"O":31.22842,"M":121.41124100000002,"lng":121.411241,"lat":31.22842},"address":"中山北路3620弄之5-8号","type":"商务住宅;住宅区;住宅小区","bu":0},{"name":"东方康洛","position":{"O":31.177621,"M":121.41228799999999,"lng":121.412288,"lat":31.177621},"address":"钦江路28弄之1-15号","type":"商务住宅;住宅区;住宅小区","bu":0},{"name":"梅川馨苑","position":{"O":31.239897,"M":121.39760799999999,"lng":121.397608,"lat":31.239897},"address":"梅川路278弄1-44号","type":"商务住宅;住宅区;住宅小区","bu":0},{"name":"新闸大厦","position":{"O":31.227144,"M":121.44284700000003,"lng":121.442847,"lat":31.227144},"address":"新闸路1851号","type":"商务住宅;住宅区;住宅小区|商务住宅;楼宇;商务写字楼","bu":1},{"name":"新丰小区","position":{"O":31.236833,"M":121.43990200000002,"lng":121.439902,"lat":31.236833},"address":"常德路1039弄2-14号边弄","type":"商务住宅;住宅区;住宅小区","bu":0},{"name":"森凯苑","position":{"O":31.235526,"M":121.43734699999999,"lng":121.437347,"lat":31.235526},"address":"余姚路318弄1-9号","type":"商务住宅;住宅区;住宅小区","bu":2},{"name":"静安阳光华庭","position":{"O":31.231486,"M":121.43643600000001,"lng":121.436436,"lat":31.231486},"address":"泰州路228弄1-2号","type":"商务住宅;住宅区;住宅小区","bu":0},{"name":"静安新格公寓","position":{"O":31.236417,"M":121.45011399999999,"lng":121.450114,"lat":31.236417},"address":"江宁路599弄1-5号","type":"商务住宅;住宅区;住宅小区","bu":0},{"name":"联城花苑","position":{"O":31.174084,"M":121.48046499999998,"lng":121.480465,"lat":31.174084},"address":"耀华路555弄1-18号","type":"商务住宅;住宅区;住宅小区","bu":0},{"name":"西部大厦","position":{"O":31.236672,"M":121.43262600000003,"lng":121.432626,"lat":31.236672},"address":"长寿路767号","type":"商务住宅;楼宇;商务写字楼","bu":0},{"name":"橡胶小区(宛平南路)","position":{"O":31.196989,"M":121.44560899999999,"lng":121.445609,"lat":31.196989},"address":"宛平南路19弄","type":"商务住宅;住宅区;住宅小区","bu":0},{"name":"水景苑","position":{"O":31.238634,"M":121.47060999999997,"lng":121.47061,"lat":31.238634},"address":"新闸路166-168号","type":"商务住宅;住宅区;住宅小区","bu":0},{"name":"南星小区","position":{"O":31.243382,"M":121.46593200000001,"lng":121.465932,"lat":31.243382},"address":"新疆路435","type":"商务住宅;住宅区;住宅小区","bu":0},{"name":"梅六小区","position":{"O":31.242206,"M":121.387587,"lng":121.387587,"lat":31.242206},"address":"梅川路916弄之1-84号","type":"商务住宅;住宅区;住宅小区","bu":0},{"name":"宣化小区","position":{"O":31.218274,"M":121.42965300000003,"lng":121.429653,"lat":31.218274},"address":"宣化路72弄1-23号","type":"商务住宅;住宅区;住宅小区","bu":0},{"name":"南辉小区","position":{"O":31.217276,"M":121.42923100000002,"lng":121.429231,"lat":31.217276},"address":"宣化路113弄1-6、8、10、12、89、97、105、121、129、137号","type":"商务住宅;住宅区;住宅小区","bu":0},{"name":"岐山村","position":{"O":31.219935,"M":121.42982899999998,"lng":121.429829,"lat":31.219935},"address":"江苏路256弄之9-22号","type":"商务住宅;住宅区;住宅小区","bu":0},{"name":"银山小区(银山路)","position":{"O":31.243381,"M":121.58066600000001,"lng":121.580666,"lat":31.243381},"address":"银山路200弄之1-71号","type":"商务住宅;住宅区;住宅小区","bu":0},{"name":"环庆新苑","position":{"O":31.24619,"M":121.68815699999999,"lng":121.688157,"lat":31.24619},"address":"胜利路169弄1-69号","type":"商务住宅;住宅区;住宅小区","bu":0},{"name":"昭化小区","position":{"O":31.211568,"M":121.42123900000001,"lng":121.421239,"lat":31.211568},"address":"昭化路555弄265-279号","type":"商务住宅;住宅区;住宅小区","bu":2},{"name":"金都苑","position":{"O":31.21574,"M":121.423563,"lng":121.423563,"lat":31.21574},"address":"定西路1310弄之16-18号","type":"商务住宅;商务住宅相关;商务住宅相关","bu":0},{"name":"金杨新村一街坊","position":{"O":31.247485,"M":121.57095600000002,"lng":121.570956,"lat":31.247485},"address":"居家桥路737弄1-54号","type":"商务住宅;住宅区;住宅小区","bu":0},{"name":"联富假日公寓","position":{"O":31.244119,"M":121.480614,"lng":121.480614,"lat":31.244119},"address":"山西北路222弄","type":"商务住宅;住宅区;住宅小区","bu":0},{"name":"华电小区(华阳路)","position":{"O":31.22346,"M":121.42253199999999,"lng":121.422532,"lat":31.22346},"address":"华阳路165弄之1-3号","type":"商务住宅;住宅区;住宅小区","bu":0},{"name":"鞍山五村","position":{"O":31.276427,"M":121.50502699999998,"lng":121.505027,"lat":31.276427},"address":"四平路1020弄","type":"商务住宅;住宅区;住宅小区","bu":0},{"name":"宝虹新苑","position":{"O":31.263261,"M":121.478902,"lng":121.478902,"lat":31.263261},"address":"横浜路158弄之1-3号","type":"商务住宅;住宅区;住宅小区","bu":0},{"name":"兴华小区(东体育会路)","position":{"O":31.274365,"M":121.48177900000002,"lng":121.481779,"lat":31.274365},"address":"东体育会路100弄之1-3号","type":"商务住宅;住宅区;住宅小区","bu":0},{"name":"明苑别墅","position":{"O":31.196501,"M":121.37832900000001,"lng":121.378329,"lat":31.196501},"address":"龙溪路189号(近青溪路)","type":"商务住宅;住宅区;别墅","bu":0},{"name":"馨虹小区","position":{"O":31.207329,"M":121.36429900000002,"lng":121.364299,"lat":31.207329},"address":"淞虹路800弄1-19、2-24号","type":"商务住宅;住宅区;住宅小区","bu":0},{"name":"虹连大楼","position":{"O":31.276146,"M":121.49387999999999,"lng":121.49388,"lat":31.276146},"address":"大连西路201弄1-2号","type":"商务住宅;住宅区;住宅小区","bu":0},{"name":"金陵国际大厦","position":{"O":31.265954,"M":121.48950100000002,"lng":121.489501,"lat":31.265954},"address":"欧阳路85号","type":"商务住宅;楼宇;商务写字楼","bu":0},{"name":"永嘉新村","position":{"O":31.206054,"M":121.45026899999999,"lng":121.450269,"lat":31.206054},"address":"永嘉路580弄之1-110号","type":"商务住宅;住宅区;住宅小区","bu":1},{"name":"建德花园海棠苑","position":{"O":31.237578,"M":121.36211700000001,"lng":121.362117,"lat":31.237578},"address":"棕榈路300弄之1-75号","type":"商务住宅;住宅区;住宅小区","bu":0},{"name":"光华坊","position":{"O":31.251562,"M":121.46647000000002,"lng":121.46647,"lat":31.251562},"address":"永兴路595弄2号","type":"商务住宅;住宅区;住宅小区","bu":0},{"name":"振和公寓","position":{"O":31.267761,"M":121.46482300000002,"lng":121.464823,"lat":31.267761},"address":"柳营路328弄之1-22号","type":"商务住宅;住宅区;住宅小区","bu":0},{"name":"申地苑","position":{"O":31.26559,"M":121.46649200000002,"lng":121.466492,"lat":31.26559},"address":"平型关路68弄之1-18号","type":"商务住宅;住宅区;住宅小区","bu":0},{"name":"南洋绿都","position":{"O":31.186517,"M":121.37048199999998,"lng":121.370482,"lat":31.186517},"address":"延安西路3500号","type":"商务住宅;住宅区;住宅小区","bu":0},{"name":"虹北公寓","position":{"O":31.314687,"M":121.47385099999997,"lng":121.473851,"lat":31.314687},"address":"虹口安汾路780弄1-89号","type":"商务住宅;住宅区;住宅小区","bu":0},{"name":"爱建新家园","position":{"O":31.307227,"M":121.45777299999997,"lng":121.457773,"lat":31.307227},"address":"场中路1915号","type":"商务住宅;住宅区;住宅小区","bu":0},{"name":"三千里花苑","position":{"O":31.274867,"M":121.385918,"lng":121.385918,"lat":31.274867},"address":"真南路822弄188支弄1-168号","type":"商务住宅;住宅区;住宅小区","bu":0},{"name":"天宝公寓","position":{"O":31.27407,"M":121.48944,"lng":121.48944,"lat":31.27407},"address":"虹口曲阳路487弄15号","type":"商务住宅;住宅区;住宅小区","bu":0},{"name":"丰舍东苑","position":{"O":31.274725,"M":121.66806500000001,"lng":121.668065,"lat":31.274725},"address":"民春路516弄1-52号","type":"商务住宅;住宅区;住宅小区","bu":2},{"name":"丰舍西苑","position":{"O":31.275056,"M":121.66188299999999,"lng":121.661883,"lat":31.275056},"address":"民雨路336弄1-46号","type":"商务住宅;住宅区;住宅小区","bu":0},{"name":"子长小区","position":{"O":31.261813,"M":121.43521099999998,"lng":121.435211,"lat":31.261813},"address":"子长路77弄之1-72号","type":"商务住宅;住宅区;住宅小区","bu":0},{"name":"上海通联大厦","position":{"O":31.255877,"M":121.44288399999999,"lng":121.442884,"lat":31.255877},"address":"交通路1565号","type":"商务住宅;楼宇;商务写字楼","bu":0},{"name":"泰欣嘉园","position":{"O":31.247014,"M":121.43277599999999,"lng":121.432776,"lat":31.247014},"address":"光复西路133弄","type":"商务住宅;住宅区;住宅小区","bu":0},{"name":"东陆新村二街坊","position":{"O":31.272835,"M":121.59934599999997,"lng":121.599346,"lat":31.272835},"address":"凌河路354弄1-55号","type":"商务住宅;住宅区;住宅小区","bu":0},{"name":"中鸿大厦","position":{"O":31.256343,"M":121.473368,"lng":121.473368,"lat":31.256343},"address":"中兴路571弄1号","type":"商务住宅;住宅区;住宅小区","bu":0},{"name":"申贝大厦","position":{"O":31.254053,"M":121.485704,"lng":121.485704,"lat":31.254053},"address":"吴淞路669号(近四平路)","type":"商务住宅;楼宇;商务写字楼","bu":0},{"name":"申新大厦(大华三路)","position":{"O":31.275717,"M":121.41974299999998,"lng":121.419743,"lat":31.275717},"address":"大场镇新沪路1069号","type":"商务住宅;楼宇;商务写字楼","bu":0},{"name":"西镇小区(法华镇路)","position":{"O":31.207105,"M":121.42201999999997,"lng":121.42202,"lat":31.207105},"address":"法华镇路751弄1-45号","type":"商务住宅;住宅区;住宅小区","bu":0},{"name":"香榭苑(香花桥路)","position":{"O":31.20461,"M":121.42478,"lng":121.42478,"lat":31.20461},"address":"香花桥路38弄1-9号","type":"商务住宅;住宅区;住宅小区","bu":0},{"name":"申亚新华府","position":{"O":31.205825,"M":121.42059999999998,"lng":121.4206,"lat":31.205825},"address":"新华路666弄之1-5号","type":"商务住宅;住宅区;住宅小区","bu":0},{"name":"建二公寓","position":{"O":31.273081,"M":121.500113,"lng":121.500113,"lat":31.273081},"address":"天宝路902号","type":"商务住宅;住宅区;住宅小区","bu":0},{"name":"鑫都佳园","position":{"O":31.264134,"M":121.42190399999998,"lng":121.421904,"lat":31.264134},"address":"新村路638弄1-25号","type":"商务住宅;住宅区;住宅小区","bu":0},{"name":"延西小区","position":{"O":31.207566,"M":121.41663800000003,"lng":121.416638,"lat":31.207566},"address":"延安西路1740弄之1-26号","type":"商务住宅;住宅区;住宅小区","bu":0},{"name":"松益公寓","position":{"O":31.291362,"M":121.53343899999999,"lng":121.533439,"lat":31.291362},"address":"松花江路311-319号(已精耕)","type":"商务住宅;住宅区;住宅小区","bu":0},{"name":"远虹大厦","position":{"O":31.257306,"M":121.49996099999998,"lng":121.499961,"lat":31.257306},"address":"海门路609号","type":"商务住宅;楼宇;商住两用楼宇","bu":0},{"name":"申泉花苑","position":{"O":31.286483,"M":121.41013299999997,"lng":121.410133,"lat":31.286483},"address":"真华路1615弄之4-45号","type":"商务住宅;住宅区;住宅小区","bu":0},{"name":"曹杨五月天","position":{"O":31.260757,"M":121.408256,"lng":121.408256,"lat":31.260757},"address":"三源路41弄、三源路66弄","type":"商务住宅;住宅区;住宅小区","bu":0},{"name":"宜川二村小区","position":{"O":31.260338,"M":121.43759,"lng":121.43759,"lat":31.260338},"address":"普陀宜川路洛川路","type":"商务住宅;住宅区;住宅小区","bu":0},{"name":"瀚杨苑","position":{"O":31.26138,"M":121.529266,"lng":121.529266,"lat":31.26138},"address":"齐齐哈尔路568弄1-21号","type":"商务住宅;住宅区;住宅小区","bu":0},{"name":"鸿旭豪苑","position":{"O":31.258515,"M":121.51158099999998,"lng":121.511581,"lat":31.258515},"address":"昆明路388弄","type":"商务住宅;住宅区;住宅小区","bu":0},{"name":"虹宸易居","position":{"O":31.256027,"M":121.503625,"lng":121.503625,"lat":31.256027},"address":"公平路469弄之1-3号","type":"商务住宅;住宅区;住宅小区","bu":1},{"name":"科艺小区","position":{"O":31.300482,"M":121.46893399999999,"lng":121.468934,"lat":31.300482},"address":"奎照路791弄1-16号","type":"商务住宅;住宅区;住宅小区","bu":0},{"name":"新泉大厦","position":{"O":31.264225,"M":121.43115,"lng":121.43115,"lat":31.264225},"address":"志丹路260弄1-5号","type":"商务住宅;住宅区;住宅小区|商务住宅;楼宇;商务写字楼","bu":0},{"name":"嘉怡苑(交通路)","position":{"O":31.257868,"M":121.433584,"lng":121.433584,"lat":31.257868},"address":"交通路2245弄-1-13号","type":"商务住宅;住宅区;住宅小区","bu":1},{"name":"金华苑南区","position":{"O":31.275828,"M":121.40540499999997,"lng":121.405405,"lat":31.275828},"address":"真金路655弄1-18号","type":"商务住宅;住宅区;住宅小区","bu":1},{"name":"长春里(昆明路)","position":{"O":31.255812,"M":121.50705399999998,"lng":121.507054,"lat":31.255812},"address":"昆明路113弄之3-65号","type":"商务住宅;住宅区;住宅小区","bu":0},{"name":"宝业馨康苑","position":{"O":31.322031,"M":121.44152200000002,"lng":121.441522,"lat":31.322031},"address":"共康路169弄之1-42号","type":"商务住宅;住宅区;住宅小区","bu":0},{"name":"梦家园1区","position":{"O":31.322759,"M":121.46032500000001,"lng":121.460325,"lat":31.322759},"address":"共和二村70号77-92号","type":"商务住宅;住宅区;住宅小区","bu":0},{"name":"当代新华","position":{"O":31.202798,"M":121.419716,"lng":121.419716,"lat":31.202798},"address":"新华路569弄99号凯旋路1336号","type":"商务住宅;住宅区;住宅小区","bu":0},{"name":"中东小区","position":{"O":31.200661,"M":121.41375299999999,"lng":121.413753,"lat":31.200661},"address":"中山西路945弄之1-16号","type":"商务住宅;住宅区;住宅小区","bu":0},{"name":"兴安小区","position":{"O":31.221091,"M":121.42568299999999,"lng":121.425683,"lat":31.221091},"address":"安西路23弄之1-56号","type":"商务住宅;住宅区;住宅小区","bu":1},{"name":"黄兴公寓","position":{"O":31.288156,"M":121.52030300000001,"lng":121.520303,"lat":31.288156},"address":"黄兴路国权路1669弄11号","type":"商务住宅;住宅区;住宅小区","bu":2},{"name":"象山小区","position":{"O":31.254838,"M":121.47305599999999,"lng":121.473056,"lat":31.254838},"address":"临山路与公兴路交叉口西100米","type":"商务住宅;住宅区;住宅小区","bu":0},{"name":"徐汇御苑","position":{"O":31.192579,"M":121.45474899999999,"lng":121.454749,"lat":31.192579},"address":"东安路251弄1-3号","type":"商务住宅;住宅区;住宅小区","bu":0},{"name":"枫林新村","position":{"O":31.191507,"M":121.45956000000001,"lng":121.45956,"lat":31.191507},"address":"零陵路250弄之1-59号","type":"商务住宅;住宅区;住宅小区","bu":0},{"name":"美伦大楼","position":{"O":31.23808,"M":121.48693600000001,"lng":121.486936,"lat":31.23808},"address":"南京东路151-171号","type":"商务住宅;楼宇;商务写字楼","bu":0},{"name":"华丰大楼","position":{"O":31.291357,"M":121.51334199999997,"lng":121.513342,"lat":31.291357},"address":"国顺路280号","type":"商务住宅;住宅区;住宅小区","bu":0},{"name":"辽海小区","position":{"O":31.259264,"M":121.51685600000002,"lng":121.516856,"lat":31.259264},"address":"辽阳路189弄","type":"商务住宅;住宅区;住宅小区","bu":0},{"name":"场中公寓","position":{"O":31.307107,"M":121.47893799999997,"lng":121.478938,"lat":31.307107},"address":"场中路28弄1-10号","type":"商务住宅;住宅区;住宅小区","bu":0},{"name":"银鹿大厦","position":{"O":31.260979,"M":121.53324499999997,"lng":121.533245,"lat":31.260979},"address":"平凉路1104、1112号","type":"商务住宅;楼宇;商务写字楼","bu":1},{"name":"英达苑","position":{"O":31.269222,"M":121.50694699999997,"lng":121.506947,"lat":31.269222},"address":"辽源西路338弄","type":"商务住宅;住宅区;住宅小区","bu":1},{"name":"仁德苑","position":{"O":31.305005,"M":121.48888699999998,"lng":121.488887,"lat":31.305005},"address":"仁德路65弄","type":"商务住宅;住宅区;住宅小区","bu":0},{"name":"新北小区","position":{"O":31.307381,"M":121.483157,"lng":121.483157,"lat":31.307381},"address":"场中路6弄1-8号","type":"商务住宅;住宅区;住宅小区","bu":0},{"name":"西门南村","position":{"O":31.622101,"M":121.39027399999998,"lng":121.390274,"lat":31.622101},"address":"城桥镇近西门路","type":"商务住宅;住宅区;住宅小区","bu":0},{"name":"富泉公寓","position":{"O":31.249177,"M":121.46210300000001,"lng":121.462103,"lat":31.249177},"address":"太阳山路78弄","type":"商务住宅;住宅区;住宅小区","bu":2},{"name":"中兴财富国际公寓","position":{"O":31.253241,"M":121.46322600000002,"lng":121.463226,"lat":31.253241},"address":"中华新路588弄","type":"商务住宅;住宅区;住宅小区","bu":1},{"name":"南华小区","position":{"O":31.287833,"M":121.30752000000001,"lng":121.30752,"lat":31.287833},"address":"南华路101弄1-56号","type":"商务住宅;住宅区;住宅小区","bu":0},{"name":"真建花苑","position":{"O":31.262808,"M":121.362507,"lng":121.362507,"lat":31.262808},"address":"桃浦路1925弄","type":"商务住宅;住宅区;住宅小区","bu":0},{"name":"金荣公寓","position":{"O":31.272725,"M":121.44521199999997,"lng":121.445212,"lat":31.272725},"address":"万荣路399弄2号601室","type":"商务住宅;住宅区;住宅小区","bu":0},{"name":"乐业五村","position":{"O":31.410007,"M":121.424511,"lng":121.424511,"lat":31.410007},"address":"德都路168弄1号-86号","type":"商务住宅;住宅区;住宅小区","bu":0},{"name":"绿杨新村(真南路)","position":{"O":31.284138,"M":121.36641700000001,"lng":121.366417,"lat":31.284138},"address":"真南路2206-2208号","type":"商务住宅;住宅区;住宅小区","bu":1},{"name":"锦福公寓","position":{"O":31.256834,"M":121.45502099999999,"lng":121.455021,"lat":31.256834},"address":"闸北芷江西路593弄","type":"商务住宅;住宅区;住宅小区","bu":0},{"name":"紫祥小区","position":{"O":31.257075,"M":121.46232900000001,"lng":121.462329,"lat":31.257075},"address":"芷江西路220弄之1-9号","type":"商务住宅;住宅区;住宅小区","bu":0},{"name":"绿柳苑","position":{"O":31.27436,"M":121.43136400000003,"lng":121.431364,"lat":31.27436},"address":"沪太路941弄1-12号","type":"商务住宅;住宅区;住宅小区","bu":0},{"name":"聚丰苑","position":{"O":31.08477,"M":121.33817299999998,"lng":121.338173,"lat":31.08477},"address":"明兴路595弄(近新南路)","type":"商务住宅;住宅区;住宅小区","bu":0},{"name":"金榜星墅","position":{"O":31.054465,"M":121.410325,"lng":121.410325,"lat":31.054465},"address":"颛桥镇沪闵路3131弄","type":"商务住宅;住宅区;别墅","bu":0},{"name":"翔泰苑","position":{"O":31.048223,"M":121.405778,"lng":121.405778,"lat":31.048223},"address":"北桥镇鹤翔路180弄","type":"商务住宅;住宅区;住宅小区","bu":0},{"name":"森林溪谷","position":{"O":31.046404,"M":121.35177899999996,"lng":121.351779,"lat":31.046404},"address":"昆阳路3388弄55号","type":"商务住宅;住宅区;住宅小区","bu":0},{"name":"沈默花苑","position":{"O":31.111959,"M":121.577134,"lng":121.577134,"lat":31.111959},"address":"韵浦路167弄之1-43号","type":"商务住宅;住宅区;住宅小区","bu":0},{"name":"月光流域","position":{"O":31.099545,"M":121.42522400000001,"lng":121.425224,"lat":31.099545},"address":"银都路1669弄","type":"商务住宅;住宅区;住宅小区","bu":0},{"name":"新申花城茉莉苑","position":{"O":31.106683,"M":121.400124,"lng":121.400124,"lat":31.106683},"address":"春申路2768弄1-55号","type":"商务住宅;住宅区;住宅小区","bu":0},{"name":"常兴家园","position":{"O":31.112182,"M":121.399067,"lng":121.399067,"lat":31.112182},"address":"莘庄镇莘朱路851弄","type":"商务住宅;住宅区;住宅小区","bu":0},{"name":"君莲新城中城苑","position":{"O":31.082298,"M":121.42037099999999,"lng":121.420371,"lat":31.082298},"address":"春都路75弄1-52号","type":"商务住宅;住宅区;住宅小区","bu":0},{"name":"凉城二村","position":{"O":31.291038,"M":121.47468400000002,"lng":121.474684,"lat":31.291038},"address":"凉城路","type":"商务住宅;住宅区;住宅小区","bu":0},{"name":"万源城御溪","position":{"O":31.145824,"M":121.392312,"lng":121.392312,"lat":31.145824},"address":"平吉路688弄","type":"商务住宅;住宅区;住宅小区","bu":0},{"name":"东方国际文化贸易中心","position":{"O":31.348036,"M":121.58790599999998,"lng":121.587906,"lat":31.348036},"address":"外高桥保税区二号门马吉路二号","type":"商务住宅;楼宇;商务写字楼","bu":2},{"name":"懿园","position":{"O":31.203924,"M":121.45032100000003,"lng":121.450321,"lat":31.203924},"address":"建国西路506弄1-57号","type":"商务住宅;住宅区;住宅小区","bu":1},{"name":"智地大厦","position":{"O":31.184785,"M":121.38405799999998,"lng":121.384058,"lat":31.184785},"address":"程家桥支路201号","type":"商务住宅;楼宇;商务写字楼","bu":0},{"name":"云帆佳苑","position":{"O":30.897612,"M":121.817972,"lng":121.817972,"lat":30.897612},"address":"彩云路51弄1-87号","type":"商务住宅;住宅区;住宅小区","bu":0},{"name":"薛家宅小区","position":{"O":31.163747,"M":121.42678699999999,"lng":121.426787,"lat":31.163747},"address":"冠生园路230弄之1-59号","type":"商务住宅;住宅区;住宅小区","bu":0},{"name":"水霞小区","position":{"O":31.208643,"M":121.38922100000002,"lng":121.389221,"lat":31.208643},"address":"茅台路597弄1-11号","type":"商务住宅;住宅区;住宅小区","bu":0},{"name":"三花现代城丹桂苑","position":{"O":31.3166,"M":121.47535299999998,"lng":121.475353,"lat":31.3166},"address":"云西路168弄","type":"商务住宅;住宅区;住宅小区","bu":0},{"name":"气象大楼(漕溪北路)","position":{"O":31.189815,"M":121.43724800000001,"lng":121.437248,"lat":31.189815},"address":"漕溪北路280号","type":"商务住宅;楼宇;商务写字楼","bu":0},{"name":"平成阁","position":{"O":31.172637,"M":121.42371800000001,"lng":121.423718,"lat":31.172637},"address":"柳州路523号","type":"商务住宅;住宅区;住宅小区","bu":2},{"name":"明德公寓(长阳路)","position":{"O":31.261993,"M":121.51882799999998,"lng":121.518828,"lat":31.261993},"address":"长阳路758号","type":"商务住宅;住宅区;住宅小区","bu":0},{"name":"龙居花苑","position":{"O":31.254577,"M":121.56125299999997,"lng":121.561253,"lat":31.254577},"address":"浦东龙居路2号(浦东大道口)","type":"商务住宅;住宅区;住宅小区","bu":0},{"name":"东方知音苑","position":{"O":31.258195,"M":121.57480299999997,"lng":121.574803,"lat":31.258195},"address":"博山东路811弄1-100号","type":"商务住宅;住宅区;住宅小区","bu":0},{"name":"典雅公寓","position":{"O":31.284793,"M":121.47236299999997,"lng":121.472363,"lat":31.284793},"address":"广灵二路298弄1-9号","type":"商务住宅;住宅区;住宅小区","bu":0},{"name":"恒昌花园B座","position":{"O":31.188991,"M":121.44950699999998,"lng":121.449507,"lat":31.188991},"address":"宛平南路521号","type":"商务住宅;楼宇;商住两用楼宇","bu":0},{"name":"西郊宾馆花园别墅","position":{"O":31.197482,"M":121.38278000000003,"lng":121.38278,"lat":31.197482},"address":"","type":"商务住宅;住宅区;别墅","bu":0},{"name":"清水苑(长岛路)","position":{"O":31.259611,"M":121.59539999999998,"lng":121.5954,"lat":31.259611},"address":"长岛路1280弄1～78号","type":"商务住宅;住宅区;住宅小区","bu":0},{"name":"伟业金锦苑东方丽景","position":{"O":31.281174,"M":121.58721000000003,"lng":121.58721,"lat":31.281174},"address":"东陆路429弄1-54号","type":"商务住宅;住宅区;住宅小区","bu":0},{"name":"开鲁三村","position":{"O":31.323319,"M":121.52870899999999,"lng":121.528709,"lat":31.323319},"address":"杨浦中原路市光路","type":"商务住宅;住宅区;住宅小区","bu":0},{"name":"凯阳新寓","position":{"O":31.297926,"M":121.48576500000001,"lng":121.485765,"lat":31.297926},"address":"纪念路335弄-8号甲","type":"商务住宅;住宅区;住宅小区","bu":0},{"name":"铜川路185号红楼","position":{"O":31.253312,"M":121.41831100000002,"lng":121.418311,"lat":31.253312},"address":"铜川路185号","type":"商务住宅;楼宇;商务写字楼","bu":0},{"name":"云福大厦","position":{"O":31.202678,"M":121.46227199999998,"lng":121.462272,"lat":31.202678},"address":"肇嘉浜路269弄1-2号","type":"商务住宅;住宅区;住宅小区","bu":0},{"name":"银海苑","position":{"O":31.196704,"M":121.461951,"lng":121.461951,"lat":31.196704},"address":"大木桥路340弄之1-2号","type":"商务住宅;住宅区;住宅小区","bu":0},{"name":"新明大楼","position":{"O":31.226562,"M":121.51851499999998,"lng":121.518515,"lat":31.226562},"address":"南泉北路1017号","type":"商务住宅;住宅区;住宅小区","bu":2},{"name":"凌四小区(浦东大道)","position":{"O":31.247856,"M":121.546336,"lng":121.546336,"lat":31.247856},"address":"浦东大道1851弄1-66号","type":"商务住宅;住宅区;住宅小区","bu":0},{"name":"金恒小区","position":{"O":31.184854,"M":121.536835,"lng":121.536835,"lat":31.184854},"address":"北艾路862弄1-54号","type":"商务住宅;住宅区;住宅小区","bu":0},{"name":"达安商务楼","position":{"O":31.242601,"M":121.44990200000001,"lng":121.449902,"lat":31.242601},"address":"安远路一号近西苏州路","type":"商务住宅;楼宇;商务写字楼","bu":0},{"name":"VIP大厦","position":{"O":31.241045,"M":121.525666,"lng":121.525666,"lat":31.241045},"address":"浦东大道729号","type":"商务住宅;楼宇;商务写字楼","bu":0},{"name":"鑫隆花园(上中路)","position":{"O":31.138761,"M":121.44305800000001,"lng":121.443058,"lat":31.138761},"address":"上中路289弄之1-4号","type":"商务住宅;住宅区;住宅小区","bu":0},{"name":"外贸大楼","position":{"O":31.186892,"M":121.53048899999999,"lng":121.530489,"lat":31.186892},"address":"高科西路1862号","type":"商务住宅;楼宇;商务写字楼","bu":1},{"name":"芳华苑西区","position":{"O":31.196265,"M":121.55730399999999,"lng":121.557304,"lat":31.196265},"address":"芳华路329弄1-24号","type":"商务住宅;住宅区;住宅小区","bu":0},{"name":"新东宫广场","position":{"O":31.265497,"M":121.53993000000003,"lng":121.53993,"lat":31.265497},"address":"平凉路1500号上海市总工会沪东工人文化宫","type":"商务住宅;楼宇;商务写字楼|科教文化服务;文化宫;文化宫","bu":0},{"name":"北茶园","position":{"O":31.292624,"M":121.51691599999998,"lng":121.516916,"lat":31.292624},"address":"国顺路80弄56-59号","type":"商务住宅;住宅区;住宅小区","bu":0},{"name":"上大阳光乾静园","position":{"O":31.311887,"M":121.407105,"lng":121.407105,"lat":31.311887},"address":"上大路128弄之1-62号","type":"商务住宅;住宅区;住宅小区","bu":1},{"name":"逸仙二村(青石路)","position":{"O":31.316391,"M":121.49424999999997,"lng":121.49425,"lat":31.316391},"address":"国权北路290弄","type":"商务住宅;住宅区;住宅小区","bu":0},{"name":"宏祥花苑","position":{"O":31.269651,"M":121.492727,"lng":121.492727,"lat":31.269651},"address":"曲阳路69弄2号1201室","type":"商务住宅;住宅区;住宅小区","bu":0},{"name":"中华小区","position":{"O":31.199016,"M":121.41716300000002,"lng":121.417163,"lat":31.199016},"address":"长顺路55号","type":"商务住宅;住宅区;住宅小区","bu":0},{"name":"运光大楼","position":{"O":31.291941,"M":121.49109299999998,"lng":121.491093,"lat":31.291941},"address":"曲阳路990弄1-2号","type":"商务住宅;住宅区;住宅小区|商务住宅;楼宇;商务写字楼","bu":0},{"name":"月泉湾名邸","position":{"O":31.411958,"M":121.42620899999997,"lng":121.426209,"lat":31.411958},"address":"德都路269弄","type":"商务住宅;住宅区;住宅小区","bu":0},{"name":"武宁苑","position":{"O":31.244132,"M":121.41898600000002,"lng":121.418986,"lat":31.244132},"address":"武宁路492弄51支弄1-8号","type":"商务住宅;住宅区;住宅小区","bu":0},{"name":"上南春天苑","position":{"O":31.151116,"M":121.50455199999999,"lng":121.504552,"lat":31.151116},"address":"杨南路826弄之1-46号","type":"商务住宅;住宅区;住宅小区","bu":0},{"name":"九九别墅","position":{"O":31.04416,"M":121.712896,"lng":121.712896,"lat":31.04416},"address":"惠南镇南六公路99弄33支弄","type":"商务住宅;住宅区;别墅","bu":2},{"name":"金地·格林春晓","position":{"O":31.293346,"M":121.325647,"lng":121.325647,"lat":31.293346},"address":"真南路4233弄","type":"商务住宅;住宅区;住宅小区","bu":0},{"name":"贝越水岸名邸","position":{"O":31.177937,"M":121.69622800000002,"lng":121.696228,"lat":31.177937},"address":"川沙镇妙境路1367弄","type":"商务住宅;住宅区;住宅小区","bu":0},{"name":"紫兰苑2期","position":{"O":31.2559,"M":121.45596599999999,"lng":121.455966,"lat":31.2559},"address":"普善路128弄","type":"商务住宅;住宅区;住宅小区","bu":2},{"name":"市新小区","position":{"O":31.237347,"M":121.523258,"lng":121.523258,"lat":31.237347},"address":"福山路40弄1-34号","type":"商务住宅;住宅区;住宅小区","bu":0},{"name":"圣堡别墅","position":{"O":31.15607,"M":121.27626700000002,"lng":121.276267,"lat":31.15607},"address":"徐泾镇联民路99弄","type":"商务住宅;住宅区;别墅","bu":2},{"name":"崮山小区","position":{"O":31.236412,"M":121.56336799999997,"lng":121.563368,"lat":31.236412},"address":"灵山路1396弄1-34号","type":"商务住宅;住宅区;住宅小区","bu":0},{"name":"兆丰花园(长宁路)","position":{"O":31.217727,"M":121.419194,"lng":121.419194,"lat":31.217727},"address":"长宁路969号","type":"商务住宅;住宅区;住宅小区","bu":0},{"name":"五月花商务中心","position":{"O":31.230773,"M":121.46378400000003,"lng":121.463784,"lat":31.230773},"address":"吴江路15号","type":"商务住宅;楼宇;商务写字楼","bu":0},{"name":"开鲁四村","position":{"O":31.325903,"M":121.53045099999997,"lng":121.530451,"lat":31.325903},"address":"开鲁路456弄1-6号","type":"商务住宅;住宅区;住宅小区","bu":0},{"name":"绿洲花园","position":{"O":31.356673,"M":121.388398,"lng":121.388398,"lat":31.356673},"address":"沙浦路128弄","type":"商务住宅;住宅区;住宅小区","bu":0},{"name":"丽景小区","position":{"O":31.375956,"M":121.24555299999997,"lng":121.245553,"lat":31.375956},"address":"塔城路461号-463号","type":"商务住宅;住宅区;住宅小区","bu":0},{"name":"蓝村小区","position":{"O":31.212479,"M":121.524453,"lng":121.524453,"lat":31.212479},"address":"蓝村路501弄之2号-33号","type":"商务住宅;住宅区;住宅小区","bu":0},{"name":"泰宸新苑","position":{"O":31.241807,"M":121.36262299999999,"lng":121.362623,"lat":31.241807},"address":"金沙江路2788弄","type":"商务住宅;住宅区;住宅小区","bu":0},{"name":"高行银杏苑南区","position":{"O":31.289141,"M":121.60729500000002,"lng":121.607295,"lat":31.289141},"address":"行泰路150弄1-22号","type":"商务住宅;住宅区;住宅小区","bu":1},{"name":"张桥小区(佳林路)","position":{"O":31.264488,"M":121.61161400000003,"lng":121.611614,"lat":31.264488},"address":"佳林路962弄1-12号","type":"商务住宅;住宅区;住宅小区","bu":0},{"name":"工农二村","position":{"O":31.325562,"M":121.53534200000001,"lng":121.535342,"lat":31.325562},"address":"殷行路451弄之1-59号","type":"商务住宅;住宅区;住宅小区","bu":0},{"name":"金华苑北区","position":{"O":31.276662,"M":121.40543400000001,"lng":121.405434,"lat":31.276662},"address":"真金路725弄之1-20号","type":"商务住宅;住宅区;住宅小区","bu":2},{"name":"罗秀苑(上中西路)","position":{"O":31.128988,"M":121.41120000000001,"lng":121.4112,"lat":31.128988},"address":"上中西路1555弄1-23号","type":"商务住宅;住宅区;住宅小区","bu":2},{"name":"泉东小区","position":{"O":31.225806,"M":121.52109899999999,"lng":121.521099,"lat":31.225806},"address":"南泉北路东200米","type":"商务住宅;住宅区;住宅小区","bu":0},{"name":"双桥小区","position":{"O":31.285467,"M":121.59614599999998,"lng":121.596146,"lat":31.285467},"address":"双桥路218弄1-51号","type":"商务住宅;住宅区;住宅小区","bu":0},{"name":"福赐花苑","position":{"O":31.296878,"M":121.48276699999997,"lng":121.482767,"lat":31.296878},"address":"车站北路24弄1-34号","type":"商务住宅;住宅区;住宅小区","bu":0},{"name":"东海广场2号楼","position":{"O":31.226267,"M":121.44921399999998,"lng":121.449214,"lat":31.226267},"address":"愚园东路20号","type":"商务住宅;楼宇;商务写字楼","bu":0},{"name":"星源公寓","position":{"O":31.322477,"M":121.54294500000003,"lng":121.542945,"lat":31.322477},"address":"工农四村1-45号","type":"商务住宅;住宅区;住宅小区","bu":0},{"name":"鹤北新村","position":{"O":31.011189,"M":121.41886399999999,"lng":121.418864,"lat":31.011189},"address":"鹤庆路136弄之1-278号","type":"商务住宅;住宅区;住宅小区","bu":0},{"name":"东南华庭","position":{"O":31.205692,"M":121.51704999999998,"lng":121.51705,"lat":31.205692},"address":"临沂北路150弄之1-3号","type":"商务住宅;住宅区;住宅小区","bu":1},{"name":"翔威白领公寓","position":{"O":31.266783,"M":121.53472299999999,"lng":121.534723,"lat":31.266783},"address":"宁国路393之1-3号","type":"商务住宅;住宅区;住宅小区","bu":1},{"name":"东华里","position":{"O":31.257092,"M":121.53900199999998,"lng":121.539002,"lat":31.257092},"address":"杨树浦路1581弄","type":"商务住宅;住宅区;住宅小区","bu":0},{"name":"宝隆一方大厦","position":{"O":31.295766,"M":121.48798599999998,"lng":121.487986,"lat":31.295766},"address":"逸仙路158号","type":"商务住宅;楼宇;商务写字楼","bu":0},{"name":"仁恒家园","position":{"O":31.332674,"M":121.59355800000003,"lng":121.593558,"lat":31.332674},"address":"浦东区季景路555弄(杨高北路/航津路)","type":"商务住宅;住宅区;住宅小区","bu":0},{"name":"体育公寓","position":{"O":31.173973,"M":121.42902700000002,"lng":121.429027,"lat":31.173973},"address":"田林东路360弄之1-2号","type":"商务住宅;住宅区;住宅小区","bu":0},{"name":"财富广场(国庠路)","position":{"O":31.302139,"M":121.518148,"lng":121.518148,"lat":31.302139},"address":"国庠路28号","type":"商务住宅;楼宇;商务写字楼","bu":0},{"name":"周康四村","position":{"O":31.140347,"M":121.57206400000001,"lng":121.572064,"lat":31.140347},"address":"康沈路465弄","type":"商务住宅;住宅区;住宅小区","bu":0},{"name":"新里城和合苑","position":{"O":31.158224,"M":121.52648999999997,"lng":121.52649,"lat":31.158224},"address":"杨高南路4501弄57号","type":"商务住宅;住宅区;住宅小区","bu":0},{"name":"华夏小区(杨新路)","position":{"O":31.163114,"M":121.494235,"lng":121.494235,"lat":31.163114},"address":"杨新路77弄1号-5号","type":"商务住宅;住宅区;住宅小区","bu":0},{"name":"华东花苑(罗城路)","position":{"O":31.14844,"M":121.43541600000003,"lng":121.435416,"lat":31.14844},"address":"龙川北路436弄(近罗城路)","type":"商务住宅;住宅区;住宅小区","bu":0},{"name":"同润家园","position":{"O":31.089345,"M":121.359758,"lng":121.359758,"lat":31.089345},"address":"新桥镇场南路1弄","type":"商务住宅;住宅区;住宅小区","bu":0},{"name":"东泰大楼北楼","position":{"O":31.230512,"M":121.51460900000001,"lng":121.514609,"lat":31.230512},"address":"浦东南路978号","type":"商务住宅;楼宇;商住两用楼宇","bu":0},{"name":"樱花坊","position":{"O":31.207762,"M":121.552434,"lng":121.552434,"lat":31.207762},"address":"牡丹路418弄1-24号","type":"商务住宅;住宅区;住宅小区|地名地址信息;普通地名;村庄级地名","bu":2},{"name":"罗山六村","position":{"O":31.246742,"M":121.56150600000001,"lng":121.561506,"lat":31.246742},"address":"浦东德平路100弄、博山东路20弄8-27号","type":"商务住宅;住宅区;住宅小区","bu":0},{"name":"君御豪庭","position":{"O":31.234782,"M":121.44541900000002,"lng":121.445419,"lat":31.234782},"address":"西康路633弄1-13号","type":"商务住宅;住宅区;住宅小区","bu":0},{"name":"北海小区","position":{"O":31.231599,"M":121.47828700000002,"lng":121.478287,"lat":31.231599},"address":"福州路671弄7-11号","type":"商务住宅;住宅区;住宅小区","bu":0},{"name":"新会苑","position":{"O":31.23764,"M":121.43778800000001,"lng":121.437788,"lat":31.23764},"address":"胶州路960弄10号","type":"商务住宅;住宅区;住宅小区","bu":0},{"name":"天合大厦","position":{"O":31.231237,"M":121.43839400000002,"lng":121.438394,"lat":31.231237},"address":"康定路980弄1号","type":"商务住宅;楼宇;商住两用楼宇","bu":2},{"name":"上海展览中心商务楼","position":{"O":31.224913,"M":121.45110899999997,"lng":121.451109,"lat":31.224913},"address":"延安中路1000号","type":"商务住宅;楼宇;商务写字楼","bu":0},{"name":"金家巷(万航渡路249弄小区东北)","position":{"O":31.22673,"M":121.44005500000003,"lng":121.440055,"lat":31.22673},"address":"新闸路1990弄2-6号","type":"商务住宅;住宅区;住宅小区","bu":1},{"name":"海影大厦","position":{"O":31.225356,"M":121.43283099999996,"lng":121.432831,"lat":31.225356},"address":"武定西路1288号","type":"商务住宅;楼宇;商住两用楼宇","bu":0},{"name":"芳华公寓","position":{"O":31.2391,"M":121.43344100000002,"lng":121.433441,"lat":31.2391},"address":"长寿路650弄30号","type":"商务住宅;住宅区;住宅小区","bu":0},{"name":"花园公寓(南京西路)","position":{"O":31.227157,"M":121.45612699999998,"lng":121.456127,"lat":31.227157},"address":"南京西路1173弄之1-93号","type":"商务住宅;住宅区;住宅小区","bu":2},{"name":"天山公寓","position":{"O":31.21233,"M":121.39314100000001,"lng":121.393141,"lat":31.21233},"address":"天山路585弄26-28号","type":"商务住宅;住宅区;住宅小区","bu":0},{"name":"古北·嘉年华庭南区","position":{"O":31.193015,"M":121.40804000000003,"lng":121.40804,"lat":31.193015},"address":"姚虹路509号","type":"商务住宅;住宅区;住宅小区","bu":0},{"name":"虹欣小区","position":{"O":31.192343,"M":121.41841299999999,"lng":121.418413,"lat":31.192343},"address":"中山西路1410弄1-29号","type":"商务住宅;住宅区;住宅小区","bu":0},{"name":"顺德苑","position":{"O":31.238315,"M":121.459923,"lng":121.459923,"lat":31.238315},"address":"顺德路58号","type":"商务住宅;住宅区;住宅小区","bu":0},{"name":"安乐村","position":{"O":31.231804,"M":121.44115299999999,"lng":121.441153,"lat":31.231804},"address":"康定路818弄1-38号","type":"商务住宅;住宅区;住宅小区","bu":0},{"name":"高荣小区(万航渡路)","position":{"O":31.227391,"M":121.43279100000001,"lng":121.432791,"lat":31.227391},"address":"万航渡路661弄1-68号","type":"商务住宅;住宅区;住宅小区","bu":0},{"name":"虹园八村","position":{"O":31.214235,"M":121.37140499999998,"lng":121.371405,"lat":31.214235},"address":"北渔路115弄1-49号","type":"商务住宅;住宅区;住宅小区","bu":0},{"name":"王满小区","position":{"O":31.195704,"M":121.37040999999999,"lng":121.37041,"lat":31.195704},"address":"哈密路1800弄1-36号","type":"商务住宅;住宅区;住宅小区","bu":0},{"name":"澜茵华庭东区","position":{"O":31.239611,"M":121.31789500000002,"lng":121.317895,"lat":31.239611},"address":"金园一路1519弄","type":"商务住宅;住宅区;住宅小区","bu":0},{"name":"金名公寓(金杨路)","position":{"O":31.254054,"M":121.584179,"lng":121.584179,"lat":31.254054},"address":"金杨路818弄1-3号","type":"商务住宅;住宅区;住宅小区","bu":1},{"name":"春江花悦园","position":{"O":31.285918,"M":121.608924,"lng":121.608924,"lat":31.285918},"address":"金高路988弄-1-30号","type":"商务住宅;住宅区;住宅小区","bu":0},{"name":"鞍山一村","position":{"O":31.276691,"M":121.51317599999999,"lng":121.513176,"lat":31.276691},"address":"锦西路48号","type":"商务住宅;住宅区;住宅小区","bu":0},{"name":"靖中大楼","position":{"O":31.285384,"M":121.52893699999998,"lng":121.528937,"lat":31.285384},"address":"控江路街道靖宇中路70号","type":"商务住宅;住宅区;住宅小区","bu":0},{"name":"宝立公寓","position":{"O":31.261092,"M":121.52685400000001,"lng":121.526854,"lat":31.261092},"address":"惠民路1033弄8号604室","type":"商务住宅;住宅区;住宅小区","bu":0},{"name":"舒兰小区","position":{"O":31.281959,"M":121.540704,"lng":121.540704,"lat":31.281959},"address":"舒兰路61弄1-13号","type":"商务住宅;住宅区;住宅小区","bu":0},{"name":"松苑小区(松花江路)","position":{"O":31.287031,"M":121.52528999999998,"lng":121.52529,"lat":31.287031},"address":"松花江路1160弄1-28号","type":"商务住宅;住宅区;住宅小区","bu":1},{"name":"辽源四村小区","position":{"O":31.272372,"M":121.51055100000002,"lng":121.510551,"lat":31.272372},"address":"控江路1959-1967号","type":"商务住宅;住宅区;住宅小区","bu":0},{"name":"朱家门小区","position":{"O":31.276582,"M":121.58078699999999,"lng":121.580787,"lat":31.276582},"address":"浦东大道2970弄3-73号","type":"商务住宅;住宅区;住宅小区","bu":0},{"name":"新昌大厦","position":{"O":31.2866,"M":121.480502,"lng":121.480502,"lat":31.2866},"address":"广灵四路116号","type":"商务住宅;住宅区;住宅小区|商务住宅;楼宇;商务写字楼","bu":0},{"name":"欧阳路452弄小区","position":{"O":31.272234,"M":121.48648000000003,"lng":121.48648,"lat":31.272234},"address":"欧阳路452弄之1-12号","type":"商务住宅;住宅区;住宅小区","bu":0},{"name":"华昌公寓","position":{"O":31.262096,"M":121.47724499999998,"lng":121.477245,"lat":31.262096},"address":"华昌路79号","type":"商务住宅;住宅区;住宅小区","bu":0},{"name":"391弄小区","position":{"O":31.311516,"M":121.459451,"lng":121.459451,"lat":31.311516},"address":"阳曲路391弄之1-17号","type":"商务住宅;住宅区;住宅小区","bu":2},{"name":"广灵二村","position":{"O":31.285808,"M":121.47848299999998,"lng":121.478483,"lat":31.285808},"address":"广灵四路广灵二村1-34号","type":"商务住宅;住宅区;住宅小区","bu":0},{"name":"东方都市景苑","position":{"O":31.260049,"M":121.500745,"lng":121.500745,"lat":31.260049},"address":"岳州路227、235","type":"商务住宅;住宅区;住宅小区","bu":0},{"name":"金属新村","position":{"O":31.27689,"M":121.47356000000002,"lng":121.47356,"lat":31.27689},"address":"广中路366弄1-35号","type":"商务住宅;住宅区;住宅小区","bu":0},{"name":"昌鑫世纪园","position":{"O":31.328056,"M":121.45169099999998,"lng":121.451691,"lat":31.328056},"address":"通河路129弄之1-33号","type":"商务住宅;住宅区;住宅小区","bu":0},{"name":"同济欣苑(政立路)","position":{"O":31.307444,"M":121.49524099999996,"lng":121.495241,"lat":31.307444},"address":"政立路810弄1-3号","type":"商务住宅;住宅区;住宅小区","bu":0},{"name":"赤峰小区","position":{"O":31.283395,"M":121.493244,"lng":121.493244,"lat":31.283395},"address":"赤峰路370弄1-32号","type":"商务住宅;住宅区;住宅小区","bu":1},{"name":"文华苑(大华三路)","position":{"O":31.277934,"M":121.41802799999999,"lng":121.418028,"lat":31.277934},"address":"华灵路1180弄1-65号","type":"商务住宅;住宅区;住宅小区","bu":0},{"name":"怡华苑","position":{"O":31.271847,"M":121.41949899999997,"lng":121.419499,"lat":31.271847},"address":"怡华苑路188弄之1-62号","type":"商务住宅;住宅区;住宅小区","bu":0},{"name":"康泉公寓","position":{"O":31.315342,"M":121.44163200000003,"lng":121.441632,"lat":31.315342},"address":"三泉路770弄1-40号","type":"商务住宅;住宅区;住宅小区","bu":0},{"name":"宝林七村","position":{"O":31.405189,"M":121.49556999999999,"lng":121.49557,"lat":31.405189},"address":"友谊路","type":"商务住宅;住宅区;住宅小区","bu":2},{"name":"东体小区","position":{"O":31.280722,"M":121.48850800000002,"lng":121.488508,"lat":31.280722},"address":"玉田路446弄1-8号","type":"商务住宅;住宅区;住宅小区","bu":0},{"name":"白马大厦西楼","position":{"O":31.245287,"M":121.47681599999999,"lng":121.476816,"lat":31.245287},"address":"塘沽路985号白马","type":"商务住宅;楼宇;商务写字楼","bu":0},{"name":"源梦苑","position":{"O":31.113572,"M":121.42231200000003,"lng":121.422312,"lat":31.113572},"address":"春申路1888弄6-52号","type":"商务住宅;住宅区;住宅小区","bu":0},{"name":"漕河泾新兴技术开发区科技创业中心(宜山路)","position":{"O":31.172253,"M":121.40150399999999,"lng":121.401504,"lat":31.172253},"address":"宜山路900号科技产业化大楼3层","type":"商务住宅;产业园区;产业园区","bu":1},{"name":"新汾阳公寓","position":{"O":31.210769,"M":121.45442400000002,"lng":121.454424,"lat":31.210769},"address":"汾阳路77号","type":"商务住宅;住宅区;住宅小区","bu":0},{"name":"幸之苑","position":{"O":31.313618,"M":121.487349,"lng":121.487349,"lat":31.313618},"address":"逸仙路1321弄5支弄1-12号/7支弄","type":"商务住宅;住宅区;住宅小区","bu":0},{"name":"航华一村二街坊","position":{"O":31.175285,"M":121.352776,"lng":121.352776,"lat":31.175285},"address":"航东路284-368号","type":"商务住宅;住宅区;住宅小区","bu":0},{"name":"书香公寓(赤峰路)","position":{"O":31.278383,"M":121.50178599999998,"lng":121.501786,"lat":31.278383},"address":"赤峰路59弄","type":"商务住宅;住宅区;住宅小区","bu":0},{"name":"新育公寓","position":{"O":31.116015,"M":121.58236099999999,"lng":121.582361,"lat":31.116015},"address":"周浦东八灶115弄1-31号","type":"商务住宅;住宅区;住宅小区","bu":1},{"name":"欣秋苑","position":{"O":31.021231,"M":121.70519200000001,"lng":121.705192,"lat":31.021231},"address":"宣中路697弄1-37号","type":"商务住宅;住宅区;住宅小区","bu":0},{"name":"香梅花园2期","position":{"O":31.2091,"M":121.53886999999997,"lng":121.53887,"lat":31.2091},"address":"梅花路50弄1-12号香梅花园","type":"商务住宅;住宅区;住宅小区","bu":0},{"name":"吴中公寓(中山西路)","position":{"O":31.188202,"M":121.42112800000001,"lng":121.421128,"lat":31.188202},"address":"中山西路1536弄之1-3号","type":"商务住宅;住宅区;住宅小区","bu":0},{"name":"南丹大楼","position":{"O":31.190057,"M":121.441757,"lng":121.441757,"lat":31.190057},"address":"天钥桥路250弄8号","type":"商务住宅;楼宇;商住两用楼宇","bu":0},{"name":"绿洲庭苑","position":{"O":31.129871,"M":121.437229,"lng":121.437229,"lat":31.129871},"address":"老沪闵路1068弄东大门","type":"商务住宅;住宅区;住宅小区","bu":1},{"name":"上海蓝堡别墅","position":{"O":31.121234,"M":121.69578899999999,"lng":121.695789,"lat":31.121234},"address":"南六公路1465号","type":"商务住宅;住宅区;别墅","bu":0},{"name":"康碧苑","position":{"O":30.90352,"M":121.63957399999998,"lng":121.639574,"lat":30.90352},"address":"奉城镇兰博路3151弄1-69号","type":"商务住宅;住宅区;住宅小区","bu":0},{"name":"君怡公寓","position":{"O":31.178815,"M":121.39200900000003,"lng":121.392009,"lat":31.178815},"address":"吴中路889弄1-3号","type":"商务住宅;住宅区;住宅小区","bu":0},{"name":"景江苑E区","position":{"O":31.077477,"M":121.48963500000002,"lng":121.489635,"lat":31.077477},"address":"浦江镇浦瑞路509弄","type":"商务住宅;住宅区;住宅小区","bu":1},{"name":"景江苑D区","position":{"O":31.078712,"M":121.495116,"lng":121.495116,"lat":31.078712},"address":"浦江镇浦秀路518弄","type":"商务住宅;住宅区;住宅小区","bu":0},{"name":"虹漕公寓","position":{"O":31.151377,"M":121.41598199999999,"lng":121.415982,"lat":31.151377},"address":"桂林西街85弄35-36号","type":"商务住宅;住宅区;住宅小区","bu":1},{"name":"虹桥高尔夫别墅","position":{"O":31.188106,"M":121.389317,"lng":121.389317,"lat":31.188106},"address":"虹许路555号","type":"商务住宅;住宅区;别墅","bu":0},{"name":"古美三村","position":{"O":31.141569,"M":121.40208999999999,"lng":121.40209,"lat":31.141569},"address":"平阳路360弄1-68号","type":"商务住宅;住宅区;住宅小区","bu":1},{"name":"番南小区","position":{"O":31.192222,"M":121.42560200000003,"lng":121.425602,"lat":31.192222},"address":"番禺路1160弄之1-9号","type":"商务住宅;住宅区;住宅小区","bu":0},{"name":"东风大厦","position":{"O":31.205905,"M":121.48267499999997,"lng":121.482675,"lat":31.205905},"address":"斜土路118弄1-4号","type":"商务住宅;楼宇;商住两用楼宇","bu":0},{"name":"半岛商务中心(延安中路)","position":{"O":31.223616,"M":121.45976100000001,"lng":121.459761,"lat":31.223616},"address":"延安中路延安中路537号","type":"商务住宅;楼宇;商务写字楼","bu":0},{"name":"安康新村(川周公路)","position":{"O":31.125385,"M":121.58888999999999,"lng":121.58889,"lat":31.125385},"address":"浦东区川周公路4005弄","type":"商务住宅;住宅区;住宅小区","bu":0},{"name":"财瑞大厦","position":{"O":31.205079,"M":121.43328500000001,"lng":121.433285,"lat":31.205079},"address":"华山路1568号","type":"商务住宅;楼宇;商务写字楼","bu":0},{"name":"昱龙家园北区","position":{"O":31.124529,"M":121.596789,"lng":121.596789,"lat":31.124529},"address":"康桥镇康达路688弄","type":"商务住宅;住宅区;住宅小区","bu":2},{"name":"凯兴苑","position":{"O":31.270366,"M":121.531882,"lng":121.531882,"lat":31.270366},"address":"黄兴路97弄1-26号","type":"商务住宅;住宅区;住宅小区","bu":0},{"name":"黄山新苑","position":{"O":31.258859,"M":121.57976300000001,"lng":121.579763,"lat":31.258859},"address":"浦东金桥路899弄","type":"商务住宅;住宅区;住宅小区","bu":0},{"name":"大诚花苑","position":{"O":31.29562,"M":121.50945000000002,"lng":121.50945,"lat":31.29562},"address":"国定路299弄","type":"商务住宅;住宅区;住宅小区","bu":0},{"name":"锦泽苑","position":{"O":31.146707,"M":121.139273,"lng":121.139273,"lat":31.146707},"address":"青湖路458号","type":"商务住宅;住宅区;住宅小区","bu":0},{"name":"泰宸复兴苑","position":{"O":31.237823,"M":121.31692800000002,"lng":121.316928,"lat":31.237823},"address":"江桥镇鹤旋路155弄","type":"商务住宅;住宅区;住宅小区","bu":0},{"name":"南苑四村","position":{"O":31.369339,"M":121.24655999999999,"lng":121.24656,"lat":31.369339},"address":"嘉定镇","type":"商务住宅;住宅区;住宅小区","bu":0},{"name":"燎申国际大厦","position":{"O":31.17765,"M":121.386795,"lng":121.386795,"lat":31.17765},"address":"虹桥镇吴中路1068号","type":"商务住宅;楼宇;商务写字楼","bu":0},{"name":"锦桂苑","position":{"O":31.035796,"M":121.23354899999998,"lng":121.233549,"lat":31.035796},"address":"南青路276弄75号","type":"商务住宅;住宅区;住宅小区","bu":2},{"name":"瀚林苑","position":{"O":31.150543,"M":121.50868300000002,"lng":121.508683,"lat":31.150543},"address":"上南路3899弄之1-133号","type":"商务住宅;住宅区;住宅小区","bu":0},{"name":"谷北小区","position":{"O":31.012594,"M":121.23694599999999,"lng":121.236946,"lat":31.012594},"address":"谷阳北路98号","type":"商务住宅;住宅区;住宅小区","bu":1},{"name":"方舟园三村","position":{"O":31.01851,"M":121.23718300000002,"lng":121.237183,"lat":31.01851},"address":"荣乐中路30弄1-165号","type":"商务住宅;住宅区;住宅小区","bu":2},{"name":"保利·十二橡树庄园","position":{"O":31.094577,"M":121.28814399999999,"lng":121.288144,"lat":31.094577},"address":"莘砖公路3118弄2-331号","type":"商务住宅;住宅区;住宅小区","bu":0},{"name":"驿宾楼南楼","position":{"O":30.709823,"M":121.34328499999998,"lng":121.343285,"lat":30.709823},"address":"新城路105号","type":"商务住宅;楼宇;商务写字楼","bu":2},{"name":"紫晶南园","position":{"O":31.037835,"M":121.460174,"lng":121.460174,"lat":31.037835},"address":"剑川路289号","type":"商务住宅;住宅区;住宅小区","bu":0},{"name":"众源公寓","position":{"O":31.270247,"M":121.434281,"lng":121.434281,"lat":31.270247},"address":"沪太路1008弄之1-8号","type":"商务住宅;住宅区;住宅小区","bu":0},{"name":"裕盛豪园","position":{"O":31.033288,"M":121.23758499999997,"lng":121.237585,"lat":31.033288},"address":"松江绿城路58弄、谷阳北路166号","type":"商务住宅;住宅区;住宅小区","bu":0},{"name":"玉树公寓","position":{"O":31.017355,"M":121.211545,"lng":121.211545,"lat":31.017355},"address":"荣乐西路100弄1-41号","type":"商务住宅;住宅区;住宅小区","bu":2},{"name":"阳光四季园","position":{"O":30.906428,"M":121.45027700000003,"lng":121.450277,"lat":30.906428},"address":"育秀路1288弄","type":"商务住宅;住宅区;住宅小区","bu":0},{"name":"阳光商务中心(古美路)","position":{"O":31.138439,"M":121.40529400000003,"lng":121.405294,"lat":31.138439},"address":"古美路121号","type":"商务住宅;楼宇;商务写字楼","bu":0},{"name":"通阁小区","position":{"O":31.261135,"M":121.47060799999997,"lng":121.470608,"lat":31.261135},"address":"闸北通阁路190弄、通阁路195弄、通阁路215弄","type":"商务住宅;住宅区;住宅小区","bu":0},{"name":"香花新村南区","position":{"O":31.182665,"M":121.13398799999999,"lng":121.133988,"lat":31.182665},"address":"池泾浜路31弄","type":"商务住宅;住宅区;住宅小区","bu":1},{"name":"天竹大楼","position":{"O":31.231675,"M":121.53165899999999,"lng":121.531659,"lat":31.231675},"address":"张杨路1318号","type":"商务住宅;楼宇;商住两用楼宇","bu":0},{"name":"森陇家园","position":{"O":31.13678,"M":121.41622699999999,"lng":121.416227,"lat":31.13678},"address":"梅陇路565弄1-6号","type":"商务住宅;住宅区;住宅小区","bu":1},{"name":"三元新村(三元路)","position":{"O":31.149838,"M":121.11057800000003,"lng":121.110578,"lat":31.149838},"address":"三元路18弄1号","type":"商务住宅;住宅区;住宅小区","bu":1},{"name":"沁园邨","position":{"O":31.233495,"M":121.45444099999997,"lng":121.454441,"lat":31.233495},"address":"新闸路1124弄1-59号","type":"商务住宅;住宅区;住宅小区","bu":0},{"name":"品珍苑","position":{"O":31.141462,"M":121.52336400000002,"lng":121.523364,"lat":31.141462},"address":"环林西路579弄之1-27号","type":"商务住宅;住宅区;住宅小区","bu":0},{"name":"南苑新村","position":{"O":31.367414,"M":121.24779000000001,"lng":121.24779,"lat":31.367414},"address":"良舍路288弄","type":"商务住宅;住宅区;住宅小区","bu":0},{"name":"名仕苑(正环路)","position":{"O":30.912146,"M":121.47656899999998,"lng":121.476569,"lat":30.912146},"address":"南奉公路8889弄之132-149号","type":"商务住宅;住宅区;住宅小区","bu":0},{"name":"明园村小区","position":{"O":31.26254,"M":121.52204699999999,"lng":121.522047,"lat":31.26254},"address":"长阳路910弄(近怀德路)","type":"商务住宅;住宅区;住宅小区","bu":0},{"name":"绿地漕泾新苑二期","position":{"O":30.7981,"M":121.40323999999998,"lng":121.40324,"lat":30.7981},"address":"富漕路461弄","type":"商务住宅;住宅区;住宅小区","bu":0},{"name":"禄德嘉苑","position":{"O":31.367467,"M":121.44227699999999,"lng":121.442277,"lat":31.367467},"address":"竹韵路259弄1-15","type":"商务住宅;住宅区;住宅小区","bu":1},{"name":"龙馨嘉园","position":{"O":31.302015,"M":121.42812800000002,"lng":121.428128,"lat":31.302015},"address":"少年村路700","type":"商务住宅;住宅区;住宅小区","bu":0},{"name":"临江新村小区","position":{"O":31.411174,"M":121.48688199999998,"lng":121.486882,"lat":31.411174},"address":"临江二村1-36号","type":"商务住宅;住宅区;住宅小区","bu":0},{"name":"金港大厦(奥纳路)","position":{"O":31.343912,"M":121.591204,"lng":121.591204,"lat":31.343912},"address":"外高桥保税区奥纳路55号","type":"商务住宅;楼宇;商务写字楼","bu":0},{"name":"金枫公寓","position":{"O":31.239062,"M":121.68276700000001,"lng":121.682767,"lat":31.239062},"address":"虹盛东路39弄1-34号边门","type":"商务住宅;住宅区;住宅小区","bu":0},{"name":"金鼎花苑(铜川路)","position":{"O":31.249654,"M":121.40304700000002,"lng":121.403047,"lat":31.249654},"address":"铜川路999弄5-40号","type":"商务住宅;住宅区;住宅小区","bu":0},{"name":"家纺大厦(四平路)","position":{"O":31.263645,"M":121.490947,"lng":121.490947,"lat":31.263645},"address":"四平路210号","type":"商务住宅;楼宇;商务写字楼","bu":1},{"name":"黄金世界","position":{"O":31.216698,"M":121.45831499999997,"lng":121.458315,"lat":31.216698},"address":"淮海中路988号","type":"商务住宅;楼宇;商务写字楼","bu":0},{"name":"华新明珠苑","position":{"O":31.243476,"M":121.23491200000001,"lng":121.234912,"lat":31.243476},"address":"华新镇华强街118弄","type":"商务住宅;住宅区;住宅小区","bu":1},{"name":"上海花园2期","position":{"O":31.135174,"M":121.40205400000002,"lng":121.402054,"lat":31.135174},"address":"梅陇镇沪闵路7886号","type":"商务住宅;住宅区;住宅小区","bu":0},{"name":"虹仪小区","position":{"O":31.270381,"M":121.487978,"lng":121.487978,"lat":31.270381},"address":"欧阳路377弄1-10号","type":"商务住宅;住宅区;住宅小区","bu":0},{"name":"好世麒麟园","position":{"O":31.093313,"M":121.43039599999997,"lng":121.430396,"lat":31.093313},"address":"金都路1000弄88支弄之1-236号","type":"商务住宅;住宅区;住宅小区","bu":0},{"name":"航华二村二街坊","position":{"O":31.170772,"M":121.351744,"lng":121.351744,"lat":31.170772},"address":"航华二村1-57号","type":"商务住宅;住宅区;住宅小区","bu":0},{"name":"广源楼","position":{"O":31.017344,"M":121.21764100000001,"lng":121.217641,"lat":31.017344},"address":"荣乐中路700号","type":"商务住宅;楼宇;商务写字楼","bu":0},{"name":"古华A区","position":{"O":30.915812,"M":121.46992999999998,"lng":121.46993,"lat":30.915812},"address":"解放东路1201弄","type":"商务住宅;住宅区;住宅小区","bu":0},{"name":"公捷苑","position":{"O":31.023141,"M":121.233341,"lng":121.233341,"lat":31.023141},"address":"谷阳北路881弄1-108号","type":"商务住宅;住宅区;住宅小区","bu":1},{"name":"东方明珠涉外商务楼","position":{"O":31.270775,"M":121.46243600000003,"lng":121.462436,"lat":31.270775},"address":"洛川东路285号东方明珠","type":"商务住宅;楼宇;商务写字楼","bu":1},{"name":"北美公寓","position":{"O":31.258024,"M":121.45619099999999,"lng":121.456191,"lat":31.258024},"address":"普善路239弄18号甲","type":"商务住宅;住宅区;住宅小区","bu":0},{"name":"宝宸怡秀园","position":{"O":31.374596,"M":121.49745999999999,"lng":121.49746,"lat":31.374596},"address":"同泰路135弄1-4号","type":"商务住宅;住宅区;住宅小区","bu":0},{"name":"上海之春公寓","position":{"O":31.234457,"M":121.411272,"lng":121.411272,"lat":31.234457},"address":"梅岭支路7弄1-4号","type":"商务住宅;住宅区;住宅小区","bu":0},{"name":"阳明苑(茭白园路)","position":{"O":31.269076,"M":121.52180399999997,"lng":121.521804,"lat":31.269076},"address":"江浦路1178弄","type":"商务住宅;住宅区;住宅小区","bu":0},{"name":"上海闵行电气工业园区","position":{"O":30.992377,"M":121.36521900000002,"lng":121.365219,"lat":30.992377},"address":"江川路1800号","type":"商务住宅;产业园区;产业园区","bu":0},{"name":"佘山新苑","position":{"O":31.10047,"M":121.19509499999998,"lng":121.195095,"lat":31.10047},"address":"佘山镇桃源路2弄","type":"商务住宅;住宅区;住宅小区","bu":0},{"name":"紫藤苑小区","position":{"O":31.287869,"M":121.344537,"lng":121.344537,"lat":31.287869},"address":"银杏路120弄10-72号","type":"商务住宅;住宅区;住宅小区","bu":0},{"name":"周康三村","position":{"O":31.135285,"M":121.562903,"lng":121.562903,"lat":31.135285},"address":"秀沿路505弄3-57号(已精耕)","type":"商务住宅;住宅区;住宅小区","bu":2},{"name":"育绿小区","position":{"O":31.339605,"M":121.29301599999997,"lng":121.293016,"lat":31.339605},"address":"育绿路301弄","type":"商务住宅;住宅区;住宅小区","bu":0},{"name":"银光苑","position":{"O":31.192369,"M":121.68804,"lng":121.68804,"lat":31.192369},"address":"川银路150弄1-23号","type":"商务住宅;住宅区;住宅小区","bu":0},{"name":"雅仕轩","position":{"O":31.093322,"M":121.346248,"lng":121.346248,"lat":31.093322},"address":"新桥镇莘松路1155弄532号","type":"商务住宅;住宅区;住宅小区","bu":0},{"name":"星火村","position":{"O":31.264315,"M":121.31215900000001,"lng":121.312159,"lat":31.264315},"address":"曹安公路3035","type":"商务住宅;住宅区;住宅小区","bu":0},{"name":"星华公寓","position":{"O":31.270478,"M":121.29973899999999,"lng":121.299739,"lat":31.270478},"address":"星华公路1662弄1-19号","type":"商务住宅;住宅区;住宅小区","bu":0},{"name":"星丰苑","position":{"O":31.127742,"M":121.378916,"lng":121.378916,"lat":31.127742},"address":"黎明路155弄之1-176号","type":"商务住宅;住宅区;住宅小区","bu":0},{"name":"新育东区","position":{"O":31.065592,"M":121.32168300000001,"lng":121.321683,"lat":31.065592},"address":"新育路498弄-1-64号","type":"商务住宅;住宅区;住宅小区","bu":1},{"name":"新雅小区","position":{"O":31.236896,"M":121.68379400000003,"lng":121.683794,"lat":31.236896},"address":"新雅路90弄1-17号","type":"商务住宅;住宅区;住宅小区","bu":0},{"name":"新乐花苑","position":{"O":31.385969,"M":121.27309000000002,"lng":121.27309,"lat":31.385969},"address":"迎园路277弄1-28号","type":"商务住宅;住宅区;住宅小区","bu":0},{"name":"天赐景城","position":{"O":31.63013,"M":121.41203100000001,"lng":121.412031,"lat":31.63013},"address":"城桥镇玉环路98弄","type":"商务住宅;住宅区;别墅","bu":1},{"name":"腾谷苑","position":{"O":31.085692,"M":121.400983,"lng":121.400983,"lat":31.085692},"address":"都市路3700弄","type":"商务住宅;住宅区;住宅小区","bu":0},{"name":"桃浦九村","position":{"O":31.28991,"M":121.34581200000002,"lng":121.345812,"lat":31.28991},"address":"白丽路688弄1-51号","type":"商务住宅;住宅区;住宅小区","bu":0},{"name":"石榴苑","position":{"O":31.282562,"M":121.34543200000002,"lng":121.345432,"lat":31.282562},"address":"武威路1236弄21支弄160-211号","type":"商务住宅;住宅区;住宅小区","bu":2},{"name":"欧洲苑(进贤路)","position":{"O":31.191682,"M":121.69191999999998,"lng":121.69192,"lat":31.191682},"address":"进贤路155弄1-7号","type":"商务住宅;住宅区;住宅小区","bu":0},{"name":"民惠佳苑5区","position":{"O":31.215425,"M":121.10573999999997,"lng":121.10574,"lat":31.215425},"address":"久远路1669弄1号-255号","type":"商务住宅;住宅区;住宅小区","bu":0},{"name":"绿地春申花园","position":{"O":31.110454,"M":121.40670899999998,"lng":121.406709,"lat":31.110454},"address":"莲花南路988弄","type":"商务住宅;住宅区;住宅小区","bu":2},{"name":"绿波花园","position":{"O":31.154452,"M":121.264452,"lng":121.264452,"lat":31.154452},"address":"前云路222号","type":"商务住宅;住宅区;别墅","bu":0},{"name":"上海连成(集团)工业园","position":{"O":31.27005,"M":121.28987999999998,"lng":121.28988,"lat":31.27005},"address":"曹安公路3616-3618号","type":"商务住宅;产业园区;产业园区","bu":0},{"name":"丽都别墅","position":{"O":31.161769,"M":121.29822000000001,"lng":121.29822,"lat":31.161769},"address":"高泾路428弄1-23号","type":"商务住宅;住宅区;别墅","bu":2},{"name":"控江四村小区","position":{"O":31.28513,"M":121.52489800000001,"lng":121.524898,"lat":31.28513},"address":"松花江路977号","type":"商务住宅;住宅区;住宅小区","bu":2},{"name":"康桥鑫都","position":{"O":31.145517,"M":121.610681,"lng":121.610681,"lat":31.145517},"address":"创业路66弄1-28号","type":"商务住宅;住宅区;住宅小区","bu":0},{"name":"金川大厦(中山北路)","position":{"O":31.246001,"M":121.42861900000003,"lng":121.428619,"lat":31.246001},"address":"中山北路2220号","type":"商务住宅;楼宇;商务写字楼","bu":0},{"name":"江桥三村五街坊","position":{"O":31.255782,"M":121.33638300000001,"lng":121.336383,"lat":31.255782},"address":"张掖路201弄之1-20号","type":"商务住宅;住宅区;住宅小区","bu":0},{"name":"建华村","position":{"O":31.261256,"M":121.34874500000001,"lng":121.348745,"lat":31.261256},"address":"建华路1号","type":"商务住宅;住宅区;住宅小区","bu":1},{"name":"建德南郊别墅","position":{"O":31.065262,"M":121.71821899999998,"lng":121.718219,"lat":31.065262},"address":"南六公路578弄","type":"商务住宅;住宅区;别墅","bu":1},{"name":"建安小区(华新·新市路)","position":{"O":31.246499,"M":121.22004700000002,"lng":121.220047,"lat":31.246499},"address":"纪鹤公路2738弄1-10号","type":"商务住宅;住宅区;住宅小区","bu":0},{"name":"惠阳苑","position":{"O":31.419697,"M":121.423678,"lng":121.423678,"lat":31.419697},"address":"德都路399弄1-33号","type":"商务住宅;住宅区;住宅小区","bu":0},{"name":"华港花园(新德路)","position":{"O":31.195271,"M":121.68216799999999,"lng":121.682168,"lat":31.195271},"address":"新德路1058弄1-16号","type":"商务住宅;住宅区;住宅小区","bu":0},{"name":"华丰苑(中沟路)","position":{"O":31.067692,"M":121.395445,"lng":121.395445,"lat":31.067692},"address":"中沟路400弄1-26号","type":"商务住宅;住宅区;住宅小区","bu":0},{"name":"上海豪都国际新城","position":{"O":31.160599,"M":121.280257,"lng":121.280257,"lat":31.160599},"address":"徐泾镇联民路88弄","type":"商务住宅;住宅区;住宅小区","bu":0},{"name":"公园小区","position":{"O":31.243107,"M":121.22661099999999,"lng":121.226611,"lat":31.243107},"address":"新益路258弄","type":"商务住宅;住宅区;住宅小区","bu":0},{"name":"繁盛苑","position":{"O":31.061407,"M":121.393482,"lng":121.393482,"lat":31.061407},"address":"繁安路59弄","type":"商务住宅;住宅区;住宅小区","bu":0},{"name":"繁荣苑(沪亭南路)","position":{"O":31.119701,"M":121.32998199999997,"lng":121.329982,"lat":31.119701},"address":"沪亭南路290弄1-280号","type":"商务住宅;住宅区;住宅小区","bu":0},{"name":"东苑世纪茗苑","position":{"O":31.110213,"M":121.37742500000002,"lng":121.377425,"lat":31.110213},"address":"莘庄镇莘东路298弄","type":"商务住宅;住宅区;住宅小区","bu":0},{"name":"电信实业大楼","position":{"O":31.375982,"M":121.25310200000001,"lng":121.253102,"lat":31.375982},"address":"城中路25号","type":"商务住宅;楼宇;商务写字楼","bu":0},{"name":"得胜村","position":{"O":30.971405,"M":121.30922099999998,"lng":121.309221,"lat":30.971405},"address":"西堆场路东150米","type":"商务住宅;住宅区;住宅小区","bu":0},{"name":"春光家园(雪松路)","position":{"O":31.277908,"M":121.35630200000003,"lng":121.356302,"lat":31.277908},"address":"武威路1019弄","type":"商务住宅;住宅区;住宅小区","bu":0},{"name":"百汇大厦(斜徐支路)","position":{"O":31.209958,"M":121.48032999999998,"lng":121.48033,"lat":31.209958},"address":"徐家汇路101-1号","type":"商务住宅;住宅区;住宅小区","bu":0},{"name":"胜康廖氏大厦","position":{"O":31.230532,"M":121.51926400000002,"lng":121.519264,"lat":31.230532},"address":"商城路738号","type":"商务住宅;楼宇;商务写字楼","bu":0},{"name":"明泉公寓","position":{"O":31.155244,"M":121.354402,"lng":121.354402,"lat":31.155244},"address":"青年路166","type":"商务住宅;住宅区;住宅小区","bu":0},{"name":"上海金山卫经济小区","position":{"O":30.726269,"M":121.322833,"lng":121.322833,"lat":30.726269},"address":"学府路501号","type":"商务住宅;楼宇;商务写字楼","bu":0},{"name":"闵富大厦","position":{"O":31.1057,"M":121.375159,"lng":121.375159,"lat":31.1057},"address":"莘庄镇莘建路228弄","type":"商务住宅;楼宇;商住两用楼宇","bu":0},{"name":"粤秀苑","position":{"O":31.288483,"M":121.45990699999999,"lng":121.459907,"lat":31.288483},"address":"粤秀路318弄1-37号","type":"商务住宅;住宅区;住宅小区","bu":0},{"name":"天台家园南区","position":{"O":31.21174,"M":121.382295,"lng":121.382295,"lat":31.21174},"address":"茅台路900弄1-45号","type":"商务住宅;住宅区;住宅小区","bu":0},{"name":"桃李家园(板泉路)","position":{"O":31.161079,"M":121.50758000000002,"lng":121.50758,"lat":31.161079},"address":"上南路1000弄甲","type":"商务住宅;住宅区;住宅小区","bu":0},{"name":"宝地新品居","position":{"O":31.214795,"M":121.38115099999999,"lng":121.381151,"lat":31.214795},"address":"双流路188弄1-6号","type":"商务住宅;住宅区;住宅小区","bu":0},{"name":"双宝小区","position":{"O":31.259718,"M":121.47922800000003,"lng":121.479228,"lat":31.259718},"address":"虹口东宝兴路465号、宝山路621号","type":"商务住宅;住宅区;住宅小区","bu":0},{"name":"海斯大厦","position":{"O":31.201883,"M":121.43663400000003,"lng":121.436634,"lat":31.201883},"address":"华山路1765弄之1-2号","type":"商务住宅;楼宇;商务写字楼","bu":2},{"name":"锦三角花园","position":{"O":31.186604,"M":121.542461,"lng":121.542461,"lat":31.186604},"address":"锦绣路2885弄4-37号","type":"商务住宅;住宅区;住宅小区","bu":0},{"name":"建设新苑","position":{"O":31.278702,"M":121.55114300000002,"lng":121.551143,"lat":31.278702},"address":"爱国路301弄1-18号","type":"商务住宅;住宅区;住宅小区","bu":0},{"name":"中艺花园","position":{"O":31.399872,"M":121.49888299999998,"lng":121.498883,"lat":31.399872},"address":"宝东路888弄1-34号","type":"商务住宅;住宅区;住宅小区","bu":0},{"name":"瀚林世家","position":{"O":31.229152,"M":121.438874,"lng":121.438874,"lat":31.229152},"address":"武定路1128弄3号","type":"商务住宅;住宅区;住宅区","bu":0},{"name":"延北小区(虹梅路)","position":{"O":31.193167,"M":121.38454100000001,"lng":121.384541,"lat":31.193167},"address":"虹梅路3888弄1-30号","type":"商务住宅;住宅区;住宅小区","bu":0},{"name":"银南大厦","position":{"O":31.211358,"M":121.48564599999997,"lng":121.485646,"lat":31.211358},"address":"西藏南路1090弄1-2号楼","type":"商务住宅;楼宇;商住两用楼宇","bu":0},{"name":"宏翔公寓","position":{"O":31.306551,"M":121.54168400000003,"lng":121.541684,"lat":31.306551},"address":"翔殷路309弄2-35号","type":"商务住宅;住宅区;住宅小区","bu":0},{"name":"古龙公寓","position":{"O":31.204166,"M":121.38673499999999,"lng":121.386735,"lat":31.204166},"address":"安龙路465弄2-8号","type":"商务住宅;住宅区;住宅小区","bu":0},{"name":"徐汇御景苑","position":{"O":31.166428,"M":121.44704000000002,"lng":121.44704,"lat":31.166428},"address":"龙吴路288弄1-13号","type":"商务住宅;住宅区;住宅小区","bu":0},{"name":"大洋小区","position":{"O":31.25404,"M":121.44894799999997,"lng":121.448948,"lat":31.25404},"address":"交通西路与交通路交叉口东北100米","type":"商务住宅;住宅区;住宅小区","bu":0},{"name":"怡祥居(西引路)","position":{"O":31.632806,"M":121.38993299999998,"lng":121.389933,"lat":31.632806},"address":"中街山路118弄","type":"商务住宅;住宅区;住宅小区","bu":0},{"name":"开隆大厦(广灵四路)","position":{"O":31.286147,"M":121.48235299999999,"lng":121.482353,"lat":31.286147},"address":"广灵四路24号甲","type":"商务住宅;楼宇;商务写字楼","bu":0},{"name":"龙山小区","position":{"O":31.18299,"M":121.446416,"lng":121.446416,"lat":31.18299},"address":"中山南二路988弄","type":"商务住宅;住宅区;住宅小区","bu":0},{"name":"钻石公寓(水城南路)","position":{"O":31.195996,"M":121.392426,"lng":121.392426,"lat":31.195996},"address":"水城南路51弄6-15、40-55号","type":"商务住宅;住宅区;住宅小区","bu":0},{"name":"瑞丽公寓","position":{"O":31.227131,"M":121.43586399999998,"lng":121.435864,"lat":31.227131},"address":"武定西路1158弄1-5号","type":"商务住宅;住宅区;住宅小区","bu":2},{"name":"杉达大厦","position":{"O":31.248883,"M":121.59788300000002,"lng":121.597883,"lat":31.248883},"address":"新金桥路196号","type":"商务住宅;楼宇;商务写字楼","bu":0},{"name":"莲杨苑","position":{"O":31.176838,"M":121.56145500000002,"lng":121.561455,"lat":31.176838},"address":"莲溪路780弄1-53号","type":"商务住宅;住宅区;住宅小区","bu":0},{"name":"中华保险华盛大厦","position":{"O":31.234143,"M":121.46686499999998,"lng":121.466865,"lat":31.234143},"address":"成都北路600号","type":"商务住宅;楼宇;商务写字楼","bu":0},{"name":"六角大楼","position":{"O":31.212405,"M":121.48708999999997,"lng":121.48709,"lat":31.212405},"address":"陆家浜路1139-1143号","type":"商务住宅;住宅区;住宅小区","bu":0},{"name":"长华绿苑","position":{"O":31.291876,"M":121.54448500000001,"lng":121.544485,"lat":31.291876},"address":"延吉东路140弄1-9号","type":"商务住宅;住宅区;住宅小区","bu":0},{"name":"罗锦新苑","position":{"O":31.122367,"M":121.40921000000003,"lng":121.40921,"lat":31.122367},"address":"梅陇镇景福路189弄","type":"商务住宅;住宅区;住宅小区","bu":1},{"name":"海潮公寓","position":{"O":31.210817,"M":121.49643300000002,"lng":121.496433,"lat":31.210817},"address":"普育东路31号","type":"商务住宅;住宅区;住宅小区","bu":0},{"name":"塘沽小区","position":{"O":31.248883,"M":121.488002,"lng":121.488002,"lat":31.248883},"address":"乍浦路254弄1-39号","type":"商务住宅;住宅区;住宅小区","bu":0},{"name":"虹鹰大楼","position":{"O":31.267439,"M":121.48208999999997,"lng":121.48209,"lat":31.267439},"address":"黄渡路74、80号","type":"商务住宅;楼宇;商住两用楼宇","bu":0},{"name":"复地太阳城","position":{"O":31.282846,"M":121.399585,"lng":121.399585,"lat":31.282846},"address":"古浪路108弄5-611号","type":"商务住宅;住宅区;住宅小区","bu":0},{"name":"丰盛雅苑","position":{"O":31.245614,"M":121.33351500000003,"lng":121.333515,"lat":31.245614},"address":"华江公路555弄1-137号","type":"商务住宅;住宅区;住宅小区","bu":0},{"name":"福苑大厦(幸福路)","position":{"O":31.203989,"M":121.431378,"lng":121.431378,"lat":31.203989},"address":"幸福路42号","type":"商务住宅;楼宇;商务写字楼","bu":0},{"name":"虹园一村","position":{"O":31.213684,"M":121.37287200000003,"lng":121.372872,"lat":31.213684},"address":"北渔路116弄2-50号","type":"商务住宅;住宅区;住宅小区","bu":0},{"name":"桃源兴城苑北区","position":{"O":31.20474,"M":121.47732400000001,"lng":121.477324,"lat":31.20474},"address":"南塘浜路18弄1-7号","type":"商务住宅;住宅区;住宅小区","bu":0},{"name":"南方公寓","position":{"O":31.134366,"M":121.39678000000004,"lng":121.39678,"lat":31.134366},"address":"万源路316号","type":"商务住宅;住宅区;住宅小区","bu":1},{"name":"古北公寓","position":{"O":31.20706,"M":121.40085799999997,"lng":121.400858,"lat":31.20706},"address":"古北路585号","type":"商务住宅;住宅区;住宅小区","bu":0},{"name":"鸿艺豪苑","position":{"O":31.209426,"M":121.44568400000003,"lng":121.445684,"lat":31.209426},"address":"徐汇淮海中路1500号","type":"商务住宅;住宅区;住宅小区","bu":2},{"name":"泰景苑","position":{"O":31.157372,"M":121.34864900000002,"lng":121.348649,"lat":31.157372},"address":"七莘路3128弄25支弄1-24号","type":"商务住宅;住宅区;住宅小区","bu":0},{"name":"玉华东苑","position":{"O":31.286889,"M":121.41220699999997,"lng":121.412207,"lat":31.286889},"address":"真华路1600弄1-16号","type":"商务住宅;住宅区;住宅小区","bu":0},{"name":"源成春苑","position":{"O":31.099114,"M":121.37952200000001,"lng":121.379522,"lat":31.099114},"address":"莘庄镇沁春路168弄","type":"商务住宅;住宅区;住宅小区","bu":1},{"name":"万航公寓","position":{"O":31.225806,"M":121.43173000000002,"lng":121.43173,"lat":31.225806},"address":"万航渡路676弄50-56号","type":"商务住宅;住宅区;住宅小区","bu":0},{"name":"龙腾苑(长岛路)","position":{"O":31.260277,"M":121.58370300000001,"lng":121.583703,"lat":31.260277},"address":"长岛路638弄1-14号","type":"商务住宅;住宅区;住宅小区","bu":0},{"name":"奉贤区南桥镇光明A3工业园区","position":{"O":30.904463,"M":121.49993999999998,"lng":121.49994,"lat":30.904463},"address":"万众路368号","type":"商务住宅;产业园区;产业园区","bu":0},{"name":"金梅公寓","position":{"O":31.143837,"M":121.40961900000002,"lng":121.409619,"lat":31.143837},"address":"虹梅路263-267号","type":"商务住宅;楼宇;商住两用楼宇","bu":2},{"name":"达汇花园","position":{"O":31.20629,"M":121.45531800000003,"lng":121.455318,"lat":31.20629},"address":"太原路105弄之1-2号","type":"商务住宅;住宅区;住宅小区","bu":0},{"name":"仙二小区","position":{"O":31.205464,"M":121.39306299999998,"lng":121.393063,"lat":31.205464},"address":"仙霞路454弄之1-12号","type":"商务住宅;住宅区;住宅小区","bu":0},{"name":"静安公寓","position":{"O":31.16086,"M":121.38294400000001,"lng":121.382944,"lat":31.16086},"address":"漕宝路1467弄四区73-76号","type":"商务住宅;住宅区;住宅小区","bu":0},{"name":"中房森林别墅","position":{"O":31.047143,"M":121.35945500000003,"lng":121.359455,"lat":31.047143},"address":"昆阳路3388弄","type":"商务住宅;住宅区;别墅","bu":0},{"name":"中宝大厦","position":{"O":31.257754,"M":121.474831,"lng":121.474831,"lat":31.257754},"address":"陆丰路100号","type":"商务住宅;楼宇;商务写字楼","bu":0},{"name":"鹏海东苑","position":{"O":31.175539,"M":121.56445500000001,"lng":121.564455,"lat":31.175539},"address":"五星路239弄1-85号","type":"商务住宅;住宅区;住宅小区","bu":0},{"name":"延安公寓(延安西路)","position":{"O":31.209963,"M":121.42728899999997,"lng":121.427289,"lat":31.209963},"address":"长宁延安西路1260号","type":"商务住宅;住宅区;住宅小区","bu":0},{"name":"九歌茗园","position":{"O":31.164577,"M":121.38135599999998,"lng":121.381356,"lat":31.164577},"address":"静安新城六区18-35号","type":"商务住宅;住宅区;住宅小区","bu":0},{"name":"水清一村","position":{"O":31.114569,"M":121.37957699999998,"lng":121.379577,"lat":31.114569},"address":"雅致路228弄之2-110号","type":"商务住宅;住宅区;住宅小区","bu":0},{"name":"圣美邸","position":{"O":31.19191,"M":121.41299700000002,"lng":121.412997,"lat":31.19191},"address":"长宁宋园路69弄1-8号","type":"商务住宅;住宅区;住宅小区","bu":1},{"name":"明安馨苑","position":{"O":31.175863,"M":121.44205699999998,"lng":121.442057,"lat":31.175863},"address":"龙华西路525弄之1-10号","type":"商务住宅;住宅区;住宅小区","bu":0},{"name":"绿洲城市花园","position":{"O":31.240568,"M":121.432391,"lng":121.432391,"lat":31.240568},"address":"曹杨新村街道长寿路胶州路1118号","type":"商务住宅;住宅区;住宅小区","bu":0},{"name":"龙南六村东区","position":{"O":31.155783,"M":121.45237099999997,"lng":121.452371,"lat":31.155783},"address":"喜泰北路龙南六村1-44号","type":"商务住宅;住宅区;住宅小区","bu":0},{"name":"双河社区嘉利坊","position":{"O":31.255376,"M":121.37840599999998,"lng":121.378406,"lat":31.255376},"address":"铜川路2188弄1-80号","type":"商务住宅;住宅区;住宅小区","bu":0},{"name":"黄金豪园","position":{"O":31.195397,"M":121.39759600000002,"lng":121.397596,"lat":31.195397},"address":"黄金城道777号,黄金城道770号","type":"商务住宅;住宅区;住宅小区","bu":0},{"name":"华府天地公寓","position":{"O":31.218867,"M":121.47379999999998,"lng":121.4738,"lat":31.218867},"address":"马当路222号(近新天地)","type":"商务住宅;住宅区;住宅小区","bu":0},{"name":"东怡花苑","position":{"O":31.20071,"M":121.48335700000001,"lng":121.483357,"lat":31.20071},"address":"局门路599弄1-2号","type":"商务住宅;住宅区;住宅小区","bu":0},{"name":"东泉佳苑","position":{"O":31.153965,"M":121.44466499999999,"lng":121.444665,"lat":31.153965},"address":"东泉路185弄1-5号","type":"商务住宅;住宅区;住宅小区","bu":1},{"name":"宝山七村","position":{"O":31.396828,"M":121.498741,"lng":121.498741,"lat":31.396828},"address":"宝山七村146-149号","type":"商务住宅;住宅区;住宅小区","bu":0},{"name":"东安五村","position":{"O":31.184403,"M":121.452654,"lng":121.452654,"lat":31.184403},"address":"宛平南路909弄","type":"商务住宅;住宅区;住宅小区","bu":0},{"name":"文化馨苑","position":{"O":31.183259,"M":121.54461100000003,"lng":121.544611,"lat":31.183259},"address":"博华路237弄1-78号","type":"商务住宅;住宅区;住宅小区","bu":0},{"name":"家乐苑","position":{"O":31.135209,"M":121.431061,"lng":121.431061,"lat":31.135209},"address":"上中西路55弄之1-62号","type":"商务住宅;住宅区;住宅小区","bu":0},{"name":"和平小区(罗秀路)","position":{"O":31.132252,"M":121.43079999999998,"lng":121.4308,"lat":31.132252},"address":"罗秀路930弄之1-157号","type":"商务住宅;住宅区;住宅小区","bu":0},{"name":"上船大楼","position":{"O":31.239376,"M":121.513217,"lng":121.513217,"lat":31.239376},"address":"浦东大道即墨路交叉口即墨路95号","type":"商务住宅;住宅区;住宅小区","bu":2},{"name":"民主二村","position":{"O":31.281321,"M":121.54781200000002,"lng":121.547812,"lat":31.281321},"address":"民主二村560-569号","type":"商务住宅;住宅区;住宅小区","bu":0},{"name":"赤峰路626弄小区","position":{"O":31.282855,"M":121.48521199999999,"lng":121.485212,"lat":31.282855},"address":"赤峰路626弄1-38号","type":"商务住宅;住宅区;住宅小区","bu":0},{"name":"芳草苑(芳草路)","position":{"O":31.193318,"M":121.55337299999997,"lng":121.553373,"lat":31.193318},"address":"芳草路153弄1-14号","type":"商务住宅;住宅区;住宅小区","bu":0},{"name":"椰泰公寓","position":{"O":31.308432,"M":121.518167,"lng":121.518167,"lat":31.308432},"address":"政立路115弄之1-14号","type":"商务住宅;住宅区;住宅小区","bu":0},{"name":"兰馨雅苑","position":{"O":31.30235,"M":121.53339199999999,"lng":121.533392,"lat":31.30235},"address":"营口路866弄","type":"商务住宅;住宅区;住宅小区","bu":0},{"name":"家化公寓","position":{"O":31.259555,"M":121.50842699999998,"lng":121.508427,"lat":31.259555},"address":"保定路唐山路23号827弄前门附近","type":"商务住宅;住宅区;住宅小区","bu":0},{"name":"志丹小区","position":{"O":31.261005,"M":121.42916500000001,"lng":121.429165,"lat":31.261005},"address":"甘泉路501弄之1-42号","type":"商务住宅;住宅区;住宅小区","bu":0},{"name":"海杨公寓","position":{"O":31.258062,"M":121.52892300000002,"lng":121.528923,"lat":31.258062},"address":"扬州路588弄","type":"商务住宅;住宅区;住宅小区","bu":0},{"name":"梅川一街坊","position":{"O":31.240585,"M":121.395172,"lng":121.395172,"lat":31.240585},"address":"大渡河路1400弄","type":"商务住宅;住宅区;住宅小区","bu":0},{"name":"莲馨苑(莲园路)","position":{"O":31.185659,"M":121.56160699999998,"lng":121.561607,"lat":31.185659},"address":"莲园路630弄1-88号","type":"商务住宅;住宅区;住宅小区","bu":1},{"name":"海东公寓","position":{"O":31.183745,"M":121.54832299999998,"lng":121.548323,"lat":31.183745},"address":"莲园路100弄2-70号","type":"商务住宅;住宅区;住宅小区","bu":0},{"name":"海鹏苑(长阳路)","position":{"O":31.278058,"M":121.54747399999997,"lng":121.547474,"lat":31.278058},"address":"长阳路3031弄1-20号","type":"商务住宅;住宅区;住宅小区","bu":0},{"name":"园南新村","position":{"O":31.142504,"M":121.44357300000001,"lng":121.443573,"lat":31.142504},"address":"百色路451弄之1-33号","type":"商务住宅;住宅区;住宅小区","bu":0},{"name":"建设公寓(三门路)","position":{"O":31.310875,"M":121.491402,"lng":121.491402,"lat":31.310875},"address":"三门路480弄","type":"商务住宅;住宅区;住宅小区","bu":0},{"name":"明佳苑","position":{"O":31.176543,"M":121.44217000000003,"lng":121.44217,"lat":31.176543},"address":"龙华西路535弄之1-11号","type":"商务住宅;住宅区;住宅小区","bu":1},{"name":"天翔花苑","position":{"O":31.29737,"M":121.511481,"lng":121.511481,"lat":31.29737},"address":"国定路320弄1-20号","type":"商务住宅;住宅区;住宅小区","bu":0},{"name":"山鑫阳光城","position":{"O":30.727624,"M":121.34715499999999,"lng":121.347155,"lat":30.727624},"address":"蒙山路1090弄","type":"商务住宅;住宅区;住宅小区","bu":1},{"name":"天原二村小区","position":{"O":31.213582,"M":121.39059399999996,"lng":121.390594,"lat":31.213582},"address":"天山路461弄54-56号天原二村1-18号","type":"商务住宅;住宅区;住宅小区","bu":1},{"name":"世星大楼","position":{"O":31.213839,"M":121.42777799999999,"lng":121.427778,"lat":31.213839},"address":"武夷路155-1号","type":"商务住宅;楼宇;商务写字楼","bu":0},{"name":"江南清漪园","position":{"O":31.041588,"M":121.75088199999999,"lng":121.750882,"lat":31.041588},"address":"城南路303弄1-32号","type":"商务住宅;住宅区;住宅小区","bu":0},{"name":"昌鑫家园","position":{"O":31.327532,"M":121.449251,"lng":121.449251,"lat":31.327532},"address":"宝山通河九村51-70号、通河九村156-159号、通河九村168-171号、通河九村178号、通河九村185-187号","type":"商务住宅;住宅区;住宅小区","bu":2},{"name":"永久城市花园","position":{"O":31.337299,"M":121.59035,"lng":121.59035,"lat":31.337299},"address":"季景路259弄-1号38号","type":"商务住宅;住宅区;住宅小区","bu":0},{"name":"金杨十街坊","position":{"O":31.251363,"M":121.58262400000001,"lng":121.582624,"lat":31.251363},"address":"金台路115弄1-55号","type":"商务住宅;住宅区;住宅小区","bu":0},{"name":"久远小区","position":{"O":31.195879,"M":121.56032099999999,"lng":121.560321,"lat":31.195879},"address":"花木镇","type":"商务住宅;住宅区;住宅小区","bu":2},{"name":"南新四村","position":{"O":31.1733,"M":121.54133000000002,"lng":121.54133,"lat":31.1733},"address":"下南路501弄1-45号","type":"商务住宅;住宅区;住宅小区","bu":0},{"name":"安丰小区","position":{"O":31.23946,"M":121.45696099999998,"lng":121.456961,"lat":31.23946},"address":"光复路921号","type":"商务住宅;住宅区;住宅小区","bu":0},{"name":"元和投资大厦","position":{"O":31.299068,"M":121.48693100000003,"lng":121.486931,"lat":31.299068},"address":"逸仙路300号","type":"商务住宅;楼宇;商务写字楼","bu":0},{"name":"中新公寓","position":{"O":31.238713,"M":121.553022,"lng":121.553022,"lat":31.238713},"address":"南洋泾路280弄之1-6号","type":"商务住宅;住宅区;住宅小区","bu":0},{"name":"环龙新纪园","position":{"O":31.205285,"M":121.554035,"lng":121.554035,"lat":31.205285},"address":"白杨路360弄","type":"商务住宅;住宅区;住宅小区","bu":0},{"name":"龙漕大楼","position":{"O":31.168833,"M":121.43582500000002,"lng":121.435825,"lat":31.168833},"address":"龙漕路1弄之1-9号","type":"商务住宅;住宅区;住宅小区","bu":0},{"name":"上海出版大楼","position":{"O":31.160704,"M":121.42979600000001,"lng":121.429796,"lat":31.160704},"address":"钦州南路81号","type":"商务住宅;楼宇;商务写字楼","bu":0},{"name":"锦澳家园","position":{"O":31.110498,"M":121.370477,"lng":121.370477,"lat":31.110498},"address":"莘沥路332弄之1-7号","type":"商务住宅;住宅区;住宅小区","bu":0},{"name":"安居朝阳园","position":{"O":31.237211,"M":121.38842599999998,"lng":121.388426,"lat":31.237211},"address":"怒江北路458弄之1-45号","type":"商务住宅;住宅区;住宅小区","bu":0},{"name":"达通广场","position":{"O":31.200023,"M":121.43106999999998,"lng":121.43107,"lat":31.200023},"address":"淮海西路211号","type":"商务住宅;楼宇;商务写字楼","bu":0},{"name":"新电大厦","position":{"O":31.209726,"M":121.47199499999999,"lng":121.471995,"lat":31.209726},"address":"重庆南路310号","type":"商务住宅;楼宇;商务写字楼","bu":0},{"name":"大众河滨大厦","position":{"O":31.234447,"M":121.42970100000002,"lng":121.429701,"lat":31.234447},"address":"普陀长寿路888号,武宁路8弄1号","type":"商务住宅;楼宇;商住两用楼宇","bu":0},{"name":"上海汽车工业活动中心","position":{"O":31.376771,"M":121.262629,"lng":121.262629,"lat":31.376771},"address":"新成路街道博乐南路125号","type":"商务住宅;产业园区;产业园区","bu":1},{"name":"惠工新村","position":{"O":31.179532,"M":121.412083,"lng":121.412083,"lat":31.179532},"address":"桂林路626弄之1-28号","type":"商务住宅;住宅区;住宅小区","bu":0},{"name":"马当小区","position":{"O":31.213349,"M":121.47596199999998,"lng":121.475962,"lat":31.213349},"address":"马当路357弄之1-8号","type":"商务住宅;住宅区;住宅小区","bu":0},{"name":"永峰新苑","position":{"O":31.394589,"M":121.26113099999998,"lng":121.261131,"lat":31.394589},"address":"嘉罗公路1081弄","type":"商务住宅;住宅区;住宅小区","bu":2},{"name":"信和花园(黄杨路)","position":{"O":31.241293,"M":121.58912700000002,"lng":121.589127,"lat":31.241293},"address":"金桥镇黄杨路69弄","type":"商务住宅;住宅区;住宅小区","bu":0},{"name":"狮城花苑","position":{"O":31.165575,"M":121.446977,"lng":121.446977,"lat":31.165575},"address":"龙吴路338弄1-22号","type":"商务住宅;住宅区;住宅小区","bu":1},{"name":"裕兴花园","position":{"O":31.111872,"M":121.37638500000003,"lng":121.376385,"lat":31.111872},"address":"七莘路181弄27-29号","type":"商务住宅;住宅区;住宅小区","bu":0},{"name":"彭豪公寓","position":{"O":31.309503,"M":121.43955299999999,"lng":121.439553,"lat":31.309503},"address":"临汾路1513弄1-68号","type":"商务住宅;住宅区;住宅小区","bu":0},{"name":"光联村","position":{"O":31.165268,"M":121.31531899999999,"lng":121.315319,"lat":31.165268},"address":"徐泾镇诸光路光联二路","type":"商务住宅;住宅区;住宅小区","bu":1},{"name":"嘉苑公寓","position":{"O":31.269428,"M":121.476697,"lng":121.476697,"lat":31.269428},"address":"同鸣路206弄之3-43号","type":"商务住宅;住宅区;住宅小区","bu":0},{"name":"青城苑","position":{"O":31.143299,"M":121.11560500000002,"lng":121.115605,"lat":31.143299},"address":"青松路262弄","type":"商务住宅;住宅区;住宅小区","bu":0},{"name":"茅台东苑","position":{"O":31.210268,"M":121.39502700000003,"lng":121.395027,"lat":31.210268},"address":"茅台路420弄之2-14号","type":"商务住宅;住宅区;住宅小区","bu":0},{"name":"金祥坊","position":{"O":31.245278,"M":121.37160499999999,"lng":121.371605,"lat":31.245278},"address":"吉镇路445弄之3-79号","type":"商务住宅;住宅区;住宅小区","bu":1},{"name":"三维大厦","position":{"O":31.247017,"M":121.441464,"lng":121.441464,"lat":31.247017},"address":"澳门路356号","type":"商务住宅;楼宇;商务写字楼","bu":0},{"name":"梅陇九村","position":{"O":31.13137,"M":121.42159700000002,"lng":121.421597,"lat":31.13137},"address":"凌云路","type":"商务住宅;住宅区;住宅小区","bu":2},{"name":"巨鹿大厦","position":{"O":31.21778,"M":121.44766500000003,"lng":121.447665,"lat":31.21778},"address":"巨鹿路915号","type":"商务住宅;楼宇;商务写字楼","bu":0},{"name":"禾森商务中心","position":{"O":31.208016,"M":121.419827,"lng":121.419827,"lat":31.208016},"address":"延安西路1600号","type":"商务住宅;楼宇;商务写字楼","bu":0},{"name":"微西小区","position":{"O":31.207483,"M":121.51068499999997,"lng":121.510685,"lat":31.207483},"address":"微山三村1-34号","type":"商务住宅;住宅区;住宅小区","bu":0},{"name":"杨南新村","position":{"O":31.150801,"M":121.50338399999998,"lng":121.503384,"lat":31.150801},"address":"杨南路826弄之1-46号","type":"商务住宅;住宅区;住宅小区","bu":0},{"name":"华师大二村(枣阳路)","position":{"O":31.231313,"M":121.40099299999997,"lng":121.400993,"lat":31.231313},"address":"枣阳路461号","type":"商务住宅;住宅区;住宅小区","bu":0},{"name":"紫虹大厦","position":{"O":31.205961,"M":121.40979500000003,"lng":121.409795,"lat":31.205961},"address":"中山西路800弄57","type":"商务住宅;楼宇;商务写字楼","bu":1},{"name":"常高公寓","position":{"O":31.236857,"M":121.41094900000002,"lng":121.410949,"lat":31.236857},"address":"梅岭南路380弄1-20号","type":"商务住宅;住宅区;住宅小区","bu":0},{"name":"北方花苑","position":{"O":31.205753,"M":121.49051700000001,"lng":121.490517,"lat":31.205753},"address":"保屯路129弄1-2号","type":"商务住宅;住宅区;住宅小区","bu":0},{"name":"鑫光商务中心","position":{"O":31.210126,"M":121.37644499999999,"lng":121.376445,"lat":31.210126},"address":"林泉路537号201-203室","type":"商务住宅;楼宇;商务写字楼","bu":0},{"name":"中紫小区","position":{"O":31.207146,"M":121.41066000000001,"lng":121.41066,"lat":31.207146},"address":"中山西路800弄52号-53号","type":"商务住宅;住宅区;住宅小区","bu":0},{"name":"立信大厦","position":{"O":31.18047,"M":121.42970400000002,"lng":121.429704,"lat":31.18047},"address":"中山西路2330弄2号","type":"商务住宅;楼宇;商务写字楼","bu":0},{"name":"春申新村","position":{"O":31.098425,"M":121.39212700000002,"lng":121.392127,"lat":31.098425},"address":"莘庄镇都市路4499弄","type":"商务住宅;住宅区;住宅小区","bu":0},{"name":"六里嘉园","position":{"O":31.170561,"M":121.53333399999997,"lng":121.533334,"lat":31.170561},"address":"新浦路477弄1-22号","type":"商务住宅;住宅区;住宅小区","bu":0},{"name":"保平小区","position":{"O":31.314732,"M":121.45157,"lng":121.45157,"lat":31.314732},"address":"保德路831弄之1-3号、785号821号","type":"商务住宅;住宅区;住宅小区","bu":0},{"name":"嘉和商务中心","position":{"O":31.033225,"M":121.21838300000002,"lng":121.218383,"lat":31.033225},"address":"文诚路358弄-6号","type":"商务住宅;楼宇;商务写字楼","bu":0},{"name":"静安律德大厦","position":{"O":31.226342,"M":121.43574899999999,"lng":121.435749,"lat":31.226342},"address":"武定西路1189号","type":"商务住宅;楼宇;商务写字楼","bu":0},{"name":"同舟大厦(国定路)","position":{"O":31.30009,"M":121.507833,"lng":121.507833,"lat":31.30009},"address":"国定路428-1号","type":"商务住宅;楼宇;商务写字楼","bu":0},{"name":"环龙公寓","position":{"O":31.189674,"M":121.55841599999997,"lng":121.558416,"lat":31.189674},"address":"高科西路2907弄1-19号","type":"商务住宅;住宅区;住宅小区","bu":0},{"name":"阳阳公寓","position":{"O":31.271388,"M":121.53709700000002,"lng":121.537097,"lat":31.271388},"address":"长阳路1865弄","type":"商务住宅;住宅区;住宅小区","bu":0},{"name":"彭浦大厦","position":{"O":31.294959,"M":121.45039400000002,"lng":121.450394,"lat":31.294959},"address":"共和新路3155号","type":"商务住宅;楼宇;商务写字楼","bu":0},{"name":"志园公寓","position":{"O":31.257744,"M":121.469513,"lng":121.469513,"lat":31.257744},"address":"止园路288弄边门","type":"商务住宅;住宅区;住宅小区","bu":1},{"name":"新华豪庭(法华镇路)","position":{"O":31.203425,"M":121.43128999999999,"lng":121.43129,"lat":31.203425},"address":"法华镇路129号","type":"商务住宅;住宅区;住宅小区","bu":0},{"name":"鸿福新村","position":{"O":31.12434,"M":121.41862700000001,"lng":121.418627,"lat":31.12434},"address":"同乐路151弄","type":"商务住宅;住宅区;住宅小区","bu":0},{"name":"宁东大厦","position":{"O":31.23045,"M":121.484172,"lng":121.484172,"lat":31.23045},"address":"盛泽路8号","type":"商务住宅;楼宇;商务写字楼","bu":0},{"name":"凌云公寓(灵岩南路)","position":{"O":31.14781,"M":121.49892899999998,"lng":121.498929,"lat":31.14781},"address":"灵岩南路801弄1-4号","type":"商务住宅;住宅区;住宅小区","bu":1},{"name":"樱源晶舍(福泉路)","position":{"O":31.202498,"M":121.36126000000002,"lng":121.36126,"lat":31.202498},"address":"福泉路550弄1-12号","type":"商务住宅;住宅区;住宅小区","bu":0},{"name":"爱建新村","position":{"O":31.243626,"M":121.39813700000002,"lng":121.398137,"lat":31.243626},"address":"杨柳青路735弄1-17号","type":"商务住宅;住宅区;住宅小区","bu":0},{"name":"南洋大楼","position":{"O":31.198837,"M":121.42943100000002,"lng":121.429431,"lat":31.198837},"address":"番禺路667号","type":"商务住宅;楼宇;商务写字楼","bu":2},{"name":"梅岭园","position":{"O":31.235723,"M":121.41101100000003,"lng":121.411011,"lat":31.235723},"address":"梅岭支路85弄1-38号","type":"商务住宅;住宅区;住宅小区","bu":0},{"name":"双峰小区","position":{"O":31.181053,"M":121.44940400000002,"lng":121.449404,"lat":31.181053},"address":"双峰路321-441号","type":"商务住宅;住宅区;住宅小区","bu":0},{"name":"柳明公寓","position":{"O":31.102343,"M":121.36769800000002,"lng":121.367698,"lat":31.102343},"address":"莘庄镇莘松路577弄","type":"商务住宅;住宅区;住宅小区","bu":0},{"name":"浦江天第苑","position":{"O":31.26338,"M":121.53321599999998,"lng":121.533216,"lat":31.26338},"address":"眉州路467号","type":"商务住宅;住宅区;住宅小区","bu":0},{"name":"联安大厦(富特北路)","position":{"O":31.347765,"M":121.592153,"lng":121.592153,"lat":31.347765},"address":"外高桥保税区富特北路18号","type":"商务住宅;楼宇;商务写字楼","bu":0},{"name":"绿舟别墅","position":{"O":31.105168,"M":121.01451600000001,"lng":121.014516,"lat":31.105168},"address":"绿湖路258弄1-10号","type":"商务住宅;住宅区;别墅","bu":0},{"name":"凯阳公寓","position":{"O":31.268398,"M":121.53041000000002,"lng":121.53041,"lat":31.268398},"address":"眉州路888弄","type":"商务住宅;住宅区;住宅小区","bu":0},{"name":"海天公寓(天钥桥路)","position":{"O":31.191403,"M":121.44174199999998,"lng":121.441742,"lat":31.191403},"address":"天钥桥路180弄之1-2号","type":"商务住宅;住宅区;住宅小区","bu":0},{"name":"恒联新天地花园","position":{"O":31.281683,"M":121.51557300000002,"lng":121.515573,"lat":31.281683},"address":"江浦路2089弄之1-32号","type":"商务住宅;住宅区;住宅小区","bu":0},{"name":"金汇公寓","position":{"O":31.382933,"M":121.25742100000002,"lng":121.257421,"lat":31.382933},"address":"金沙路115弄","type":"商务住宅;住宅区;住宅小区","bu":0},{"name":"顺达公寓","position":{"O":31.230526,"M":121.41751499999998,"lng":121.417515,"lat":31.230526},"address":"顺义路188号-206","type":"商务住宅;住宅区;住宅小区","bu":0},{"name":"杨浦公寓","position":{"O":31.281239,"M":121.53122200000001,"lng":121.531222,"lat":31.281239},"address":"控江路980弄","type":"商务住宅;住宅区;住宅小区","bu":0},{"name":"清真小区","position":{"O":31.198645,"M":121.45883500000002,"lng":121.458835,"lat":31.198645},"address":"清真路99弄-1号20号","type":"商务住宅;住宅区;住宅小区","bu":0},{"name":"佳安公寓","position":{"O":31.189496,"M":121.44706100000002,"lng":121.447061,"lat":31.189496},"address":"宛平南路420弄1-14号","type":"商务住宅;住宅区;住宅小区","bu":0},{"name":"东安公寓","position":{"O":31.234616,"M":121.44391000000002,"lng":121.44391,"lat":31.234616},"address":"昌平路645弄1-5号","type":"商务住宅;住宅区;住宅小区","bu":0},{"name":"云间大厦","position":{"O":31.014002,"M":121.22679199999999,"lng":121.226792,"lat":31.014002},"address":"岳阳街道乐都路358号","type":"商务住宅;楼宇;商务写字楼","bu":0},{"name":"潍坊一村","position":{"O":31.217548,"M":121.52175899999997,"lng":121.521759,"lat":31.217548},"address":"浦电路149弄之1号-31号","type":"商务住宅;住宅区;住宅小区","bu":0},{"name":"康虹园","position":{"O":31.17683,"M":121.31430699999999,"lng":121.314307,"lat":31.17683},"address":"老沪青平公路158号","type":"商务住宅;住宅区;住宅小区","bu":0},{"name":"锦佳苑","position":{"O":31.267865,"M":121.449592,"lng":121.449592,"lat":31.267865},"address":"延长中路600弄之1-41号","type":"商务住宅;住宅区;住宅小区","bu":0},{"name":"星辰公寓","position":{"O":31.21262,"M":121.42149,"lng":121.42149,"lat":31.21262},"address":"武夷路438号","type":"商务住宅;住宅区;住宅小区","bu":0},{"name":"北区商务大厦(大统路)","position":{"O":31.255455,"M":121.45881400000002,"lng":121.458814,"lat":31.255455},"address":"大统路988号","type":"商务住宅;楼宇;商务写字楼","bu":0},{"name":"浦东青年公寓","position":{"O":31.247905,"M":121.58472999999998,"lng":121.58473,"lat":31.247905},"address":"枣庄路1029弄43号","type":"商务住宅;住宅区;住宅小区","bu":0},{"name":"北翼商厦","position":{"O":31.372024,"M":121.49410999999998,"lng":121.49411,"lat":31.372024},"address":"淞滨路600号(淞桥东路口)","type":"商务住宅;楼宇;商务写字楼","bu":0},{"name":"汤臣国际贸易大厦","position":{"O":31.349663,"M":121.587647,"lng":121.587647,"lat":31.349663},"address":"外高桥保税区自贸区基隆路1号","type":"商务住宅;楼宇;商务写字楼","bu":0},{"name":"东华金融大厦","position":{"O":31.348454,"M":121.58883200000002,"lng":121.588832,"lat":31.348454},"address":"马吉路28号","type":"商务住宅;楼宇;商务写字楼","bu":0},{"name":"程桥二村","position":{"O":31.189621,"M":121.37444800000003,"lng":121.374448,"lat":31.189621},"address":"程桥二村1-8、11-16、51-53号","type":"商务住宅;住宅区;住宅小区","bu":0},{"name":"淞南十村","position":{"O":31.3336,"M":121.47328900000002,"lng":121.473289,"lat":31.3336},"address":"淞南十村234号","type":"商务住宅;住宅区;住宅小区","bu":0},{"name":"柳营新村","position":{"O":31.268591,"M":121.461815,"lng":121.461815,"lat":31.268591},"address":"洛川东路400弄(近西藏北路)","type":"商务住宅;住宅区;住宅小区","bu":1},{"name":"报春一村","position":{"O":31.119824,"M":121.377635,"lng":121.377635,"lat":31.119824},"address":"报春路851弄","type":"商务住宅;住宅区;住宅小区","bu":0},{"name":"四联大厦","position":{"O":31.270056,"M":121.496916,"lng":121.496916,"lat":31.270056},"address":"新港路311弄2-16号","type":"商务住宅;楼宇;商住两用楼宇","bu":0},{"name":"麦克花园","position":{"O":31.148135,"M":121.428696,"lng":121.428696,"lat":31.148135},"address":"石龙路980弄1-37号","type":"商务住宅;住宅区;住宅小区","bu":0},{"name":"申良花园","position":{"O":31.075996,"M":121.40055999999998,"lng":121.40056,"lat":31.075996},"address":"贵都路345弄","type":"商务住宅;住宅区;住宅小区","bu":0},{"name":"鼎信公寓","position":{"O":31.030298,"M":121.232977,"lng":121.232977,"lat":31.030298},"address":"谷阳北路1251弄","type":"商务住宅;住宅区;住宅小区","bu":1},{"name":"思浦小区","position":{"O":31.159346,"M":121.49355300000002,"lng":121.493553,"lat":31.159346},"address":"杨思路430弄之1-4","type":"商务住宅;住宅区;住宅小区","bu":0},{"name":"莲浦新苑","position":{"O":31.107175,"M":121.38991499999997,"lng":121.389915,"lat":31.107175},"address":"名都路58弄","type":"商务住宅;住宅区;住宅小区","bu":0},{"name":"叠加苑","position":{"O":31.152771,"M":121.45258000000001,"lng":121.45258,"lat":31.152771},"address":"龙水南路358弄1-15号","type":"商务住宅;住宅区;住宅小区","bu":0},{"name":"东港花苑","position":{"O":31.108925,"M":121.76041600000002,"lng":121.760416,"lat":31.108925},"address":"百熙路","type":"商务住宅;住宅区;住宅小区","bu":0},{"name":"华银苑","position":{"O":31.066993,"M":121.40013099999999,"lng":121.400131,"lat":31.066993},"address":"颛兴路45弄-1-26号","type":"商务住宅;住宅区;住宅小区","bu":0},{"name":"报春三村","position":{"O":31.121588,"M":121.375923,"lng":121.375923,"lat":31.121588},"address":"报春路816弄","type":"商务住宅;住宅区;住宅小区","bu":0},{"name":"报春花苑","position":{"O":31.120243,"M":121.37491599999998,"lng":121.374916,"lat":31.120243},"address":"报春路816号","type":"商务住宅;住宅区;住宅小区","bu":0},{"name":"银涛高尔夫别墅","position":{"O":31.163678,"M":121.26147900000001,"lng":121.261479,"lat":31.163678},"address":"沪青平公路2222号","type":"商务住宅;住宅区;别墅","bu":0},{"name":"莘松二村","position":{"O":31.107189,"M":121.37125600000002,"lng":121.371256,"lat":31.107189},"address":"莘谭路411弄","type":"商务住宅;住宅区;住宅小区","bu":0},{"name":"艾山新村","position":{"O":31.243527,"M":121.56496400000003,"lng":121.564964,"lat":31.243527},"address":"德平路764弄1-38号","type":"商务住宅;住宅区;住宅小区","bu":0},{"name":"泾阳家园","position":{"O":31.237987,"M":121.36513300000001,"lng":121.365133,"lat":31.237987},"address":"金沙江路2349弄1-33号","type":"商务住宅;住宅区;住宅小区","bu":0},{"name":"绿园一村","position":{"O":31.212914,"M":121.359735,"lng":121.359735,"lat":31.212914},"address":"淞虹路685弄","type":"商务住宅;住宅区;住宅小区","bu":0},{"name":"金汇花园四街坊","position":{"O":31.180244,"M":121.37530400000003,"lng":121.375304,"lat":31.180244},"address":"金汇路518弄之1-83号","type":"商务住宅;住宅区;住宅小区","bu":0},{"name":"建德花园郁金香苑","position":{"O":31.234114,"M":121.35814800000003,"lng":121.358148,"lat":31.234114},"address":"香樟路195弄之1-107号","type":"商务住宅;住宅区;住宅小区","bu":0},{"name":"新泾苑","position":{"O":31.20056,"M":121.36380500000001,"lng":121.363805,"lat":31.20056},"address":"中泾路18弄1-85号","type":"商务住宅;住宅区;住宅小区","bu":0},{"name":"温莎豪园","position":{"O":31.194536,"M":121.374844,"lng":121.374844,"lat":31.194536},"address":"剑河路2222弄","type":"商务住宅;住宅区;别墅","bu":0},{"name":"河滨香景园","position":{"O":31.230491,"M":121.360796,"lng":121.360796,"lat":31.230491},"address":"云岭西路899弄","type":"商务住宅;住宅区;住宅小区","bu":0},{"name":"时运苑","position":{"O":31.2882,"M":121.55553399999997,"lng":121.555534,"lat":31.2882},"address":"军工路400弄","type":"商务住宅;住宅区;住宅小区","bu":0},{"name":"祁连家园","position":{"O":31.312669,"M":121.382679,"lng":121.382679,"lat":31.312669},"address":"祁连山路2555弄之1-36号","type":"商务住宅;住宅区;住宅小区","bu":1},{"name":"锦龙苑北区","position":{"O":31.313214,"M":121.37872299999998,"lng":121.378723,"lat":31.313214},"address":"大场镇聚丰园路388弄","type":"商务住宅;住宅区;住宅小区","bu":2},{"name":"运银公寓","position":{"O":31.341724,"M":121.58619299999998,"lng":121.586193,"lat":31.341724},"address":"春晖路148弄1-16号","type":"商务住宅;住宅区;住宅小区","bu":0}]}
